[
  {
    "code": "AAA",
    "name": "Анаа",
    "coordinates": {
      "lon": -145.41667,
      "lat": -17.05
    },
    "cases": {
      "ro": "",
      "da": "",
      "vi": "",
      "tv": "",
      "pr": ""
    },
    "time_zone": "Pacific/Tahiti",
    "name_translations": {
      "en": "Anaa"
    },
    "country_code": "PF"
  },
  {
    "code": "AAB",
    "name": "Аррабури",
    "coordinates": {
      "lon": 141.04167,
      "lat": -26.7
    },
    "cases": {
      "ro": "",
      "da": "",
      "vi": "",
      "tv": "",
      "pr": ""
    },
    "time_zone": "Australia/Brisbane",
    "name_translations": {
      "en": "Arrabury"
    },
    "country_code": "AU"
  },
  {
    "code": "AAC",
    "name": "Эль-Ариш",
    "coordinates": {
      "lon": 33.75,
      "lat": 31.133333
    },
    "cases": {
      "ro": "Аль-Ариш",
      "da": "Аль-Ариш",
      "vi": "в Аль-Ариш",
      "tv": "Аль-Ариш",
      "pr": "Аль-Ариш"
    },
    "time_zone": "Africa/Cairo",
    "name_translations": {
      "en": "El Arish"
    },
    "country_code": "EG"
  },
  {
    "code": "AAE",
    "name": "Аннаба",
    "coordinates": {
      "lon": 7.811857,
      "lat": 36.821392
    },
    "cases": {
      "ro": "Аннабы",
      "da": "Аннабе",
      "vi": "в Аннабу",
      "tv": "Аннабой",
      "pr": "Аннабе"
    },
    "time_zone": "Africa/Algiers",
    "name_translations": {
      "en": "Annaba"
    },
    "country_code": "DZ"
  },
  {
    "code": "AAF",
    "name": "Апалачикола",
    "coordinates": {
      "lon": -84.98333,
      "lat": 29.733334
    },
    "cases": null,
    "time_zone": "America/New_York",
    "name_translations": {
      "en": "Apalachicola"
    },
    "country_code": "US"
  },
  {
    "code": "AAG",
    "name": "Арапоти",
    "coordinates": {
      "lon": -49.79,
      "lat": -24.103611
    },
    "cases": {},
    "time_zone": "America/Sao_Paulo",
    "name_translations": {
      "en": "Arapoti"
    },
    "country_code": "BR"
  },
  {
    "code": "AAH",
    "name": "Ахен",
    "coordinates": {
      "lon": 6.0815102,
      "lat": 50.7754385
    },
    "cases": {
      "ro": "Аахена",
      "da": "Аахену",
      "vi": "в Аахен",
      "tv": "Аахеном",
      "pr": "Аахене"
    },
    "time_zone": "Europe/Berlin",
    "name_translations": {
      "en": "Aachen"
    },
    "country_code": "DE"
  },
  {
    "code": "AAI",
    "name": "Арраяс",
    "coordinates": {
      "lon": -46.933334,
      "lat": -12.916667
    },
    "cases": null,
    "time_zone": "America/Araguaina",
    "name_translations": {
      "en": "Arraias"
    },
    "country_code": "BR"
  },
  {
    "code": "AAJ",
    "name": "Аварадам",
    "coordinates": {
      "lon": -55.36667,
      "lat": 3.9
    },
    "cases": {
      "ro": "Аварадам",
      "da": "Аварадам",
      "vi": "в Аварадам",
      "tv": "Аварадам",
      "pr": "Аварадам"
    },
    "time_zone": "America/Paramaribo",
    "name_translations": {
      "en": "Awaradam"
    },
    "country_code": "SR"
  },
  {
    "code": "AAK",
    "name": "Аранука",
    "coordinates": {
      "lon": 173.58333,
      "lat": 0.166667
    },
    "cases": null,
    "time_zone": "Pacific/Tarawa",
    "name_translations": {
      "en": "Aranuka"
    },
    "country_code": "KI"
  },
  {
    "code": "AAL",
    "name": "Ольборг",
    "coordinates": {
      "lon": 9.917771,
      "lat": 57.028811
    },
    "cases": {
      "ro": "Ольборга",
      "da": "Ольборгу",
      "vi": "в Ольборг",
      "tv": "Ольборгом",
      "pr": "Ольборге"
    },
    "time_zone": "Europe/Copenhagen",
    "name_translations": {
      "en": "Aalborg"
    },
    "country_code": "DK"
  },
  {
    "code": "AAM",
    "name": "Мала Мала",
    "coordinates": {
      "lon": 31.533333,
      "lat": -24.8
    },
    "cases": null,
    "time_zone": "Africa/Johannesburg",
    "name_translations": {
      "en": "Mala Mala"
    },
    "country_code": "ZA"
  },
  {
    "code": "AAN",
    "name": "Аль-Айн",
    "coordinates": {
      "lon": 55.7447222,
      "lat": 24.2075
    },
    "cases": {
      "ro": "Аль-Айна",
      "da": "Аль-Айну",
      "vi": "в Аль-Айн",
      "tv": "Аль-Айном",
      "pr": "Аль-Айне"
    },
    "time_zone": "Asia/Dubai",
    "name_translations": {
      "en": "Al Ain"
    },
    "country_code": "AE"
  },
  {
    "code": "AAO",
    "name": "Анако",
    "coordinates": {
      "lon": -64.46389,
      "lat": 9.431944
    },
    "cases": {
      "ro": "Анако",
      "da": "Анако",
      "vi": "в Анако",
      "tv": "Анако",
      "pr": "Анако"
    },
    "time_zone": "America/Caracas",
    "name_translations": {
      "en": "Anaco"
    },
    "country_code": "VE"
  },
  {
    "code": "AAQ",
    "name": "Анапа",
    "coordinates": {
      "lon": 37.316666,
      "lat": 44.9
    },
    "cases": {
      "ro": "Анапы",
      "da": "Анапе",
      "vi": "в Анапу",
      "tv": "Анапой",
      "pr": "Анапе"
    },
    "time_zone": "Europe/Moscow",
    "name_translations": {
      "en": "Anapa"
    },
    "country_code": "RU"
  },
  {
    "code": "AAR",
    "name": "Орхус",
    "coordinates": {
      "lon": 10.203921,
      "lat": 56.162939
    },
    "cases": {
      "ro": "Орхуса",
      "da": "Орхусу",
      "vi": "в Орхус",
      "tv": "Орхусом",
      "pr": "Орхусе"
    },
    "time_zone": "Europe/Copenhagen",
    "name_translations": {
      "en": "Aarhus"
    },
    "country_code": "DK"
  },
  {
    "code": "AAS",
    "name": "Апалапзили",
    "coordinates": {
      "lon": 139.25,
      "lat": -3.916667
    },
    "cases": {},
    "time_zone": "Asia/Jayapura",
    "name_translations": {
      "en": "Apalapsili"
    },
    "country_code": "ID"
  },
  {
    "code": "AAT",
    "name": "Алтай",
    "coordinates": {
      "lon": 88.08444,
      "lat": 47.750362
    },
    "cases": {
      "ro": "Алтая",
      "da": "Алтаю",
      "vi": "в Алтай",
      "tv": "Алтаем",
      "pr": "Алтае"
    },
    "time_zone": "Asia/Shanghai",
    "name_translations": {
      "en": "Altay"
    },
    "country_code": "CN"
  },
  {
    "code": "AAU",
    "name": "Асау",
    "coordinates": {
      "lon": -172.6,
      "lat": -13.458333
    },
    "cases": {
      "ro": "Асау",
      "da": "Асау",
      "vi": "в Асау",
      "tv": "Асау",
      "pr": "Асау"
    },
    "time_zone": "Pacific/Apia",
    "name_translations": {
      "en": "Asau"
    },
    "country_code": "WS"
  },
  {
    "code": "AAV",
    "name": "Сураллах",
    "coordinates": {
      "lon": 124.76667,
      "lat": 6.333333
    },
    "cases": null,
    "time_zone": "Asia/Manila",
    "name_translations": {
      "en": "Surallah"
    },
    "country_code": "PH"
  },
  {
    "code": "AAW",
    "name": "Абботтабад",
    "coordinates": {
      "lon": 73.25,
      "lat": 34.2
    },
    "cases": null,
    "time_zone": "Asia/Karachi",
    "name_translations": {
      "en": "Abbottabad"
    },
    "country_code": "PK"
  },
  {
    "code": "AAX",
    "name": "Араша",
    "coordinates": {
      "lon": -46.92917,
      "lat": -19.568056
    },
    "cases": {
      "ro": "Араши",
      "da": "Араше",
      "vi": "в Арашу",
      "tv": "Арашей",
      "pr": "Араше"
    },
    "time_zone": "America/Sao_Paulo",
    "name_translations": {
      "en": "Araxa"
    },
    "country_code": "BR"
  },
  {
    "code": "AAY",
    "name": "Аль Гхайдах",
    "coordinates": {
      "lon": 52.173256,
      "lat": 16.19596
    },
    "cases": null,
    "time_zone": "Asia/Aden",
    "name_translations": {
      "en": "Al Ghaydah"
    },
    "country_code": "YE"
  },
  {
    "code": "AAZ",
    "name": "Кесальтенанго",
    "coordinates": {
      "lon": -91.5,
      "lat": 14.87
    },
    "cases": null,
    "time_zone": "America/Guatemala",
    "name_translations": {
      "en": "Quetzaltenango"
    },
    "country_code": "GT"
  },
  {
    "code": "ABA",
    "name": "Абакан",
    "coordinates": {
      "lon": 91.5,
      "lat": 53.716667
    },
    "cases": {
      "ro": "Абакана",
      "da": "Абакану",
      "vi": "в Абакан",
      "tv": "Абаканом",
      "pr": "Абакане"
    },
    "time_zone": "Asia/Krasnoyarsk",
    "name_translations": {
      "en": "Abakan"
    },
    "country_code": "RU"
  },
  {
    "code": "ABC",
    "name": "Альбасете",
    "coordinates": {
      "lon": -1.8600701,
      "lat": 38.9976516
    },
    "cases": {
      "ro": "Албасета",
      "da": "Албасету",
      "vi": "в Албасет",
      "tv": "Албасетом",
      "pr": "Албасете"
    },
    "time_zone": "Europe/Madrid",
    "name_translations": {
      "en": "Albacete"
    },
    "country_code": "ES"
  },
  {
    "code": "ABD",
    "name": "Абадан",
    "coordinates": {
      "lon": 48.226597,
      "lat": 30.363905
    },
    "cases": {
      "ro": "Абадана",
      "da": "Абадану",
      "vi": "в Абадан",
      "tv": "Абаданом",
      "pr": "Абадане"
    },
    "time_zone": "Asia/Tehran",
    "name_translations": {
      "en": "Abadan"
    },
    "country_code": "IR"
  },
  {
    "code": "ABE",
    "name": "Аллентаун",
    "coordinates": {
      "lon": -75.434364,
      "lat": 40.651573
    },
    "cases": {
      "ro": "Аллентауна",
      "da": "Аллентауну",
      "vi": "в Аллентаун",
      "tv": "Аллентауном",
      "pr": "Аллентауне"
    },
    "time_zone": "America/New_York",
    "name_translations": {
      "en": "Allentown"
    },
    "country_code": "US"
  },
  {
    "code": "ABF",
    "name": "Абаианг",
    "coordinates": {
      "lon": 173.30417,
      "lat": 1.670833
    },
    "cases": {
      "ro": "Абайянг",
      "da": "Абайянг",
      "vi": "в Абайянг",
      "tv": "Абайянг",
      "pr": "Абайянг"
    },
    "time_zone": "Pacific/Tarawa",
    "name_translations": {
      "en": "Abaiang"
    },
    "country_code": "KI"
  },
  {
    "code": "ABG",
    "name": "Абингдон",
    "coordinates": {
      "lon": 143.2,
      "lat": -17.666668
    },
    "cases": null,
    "time_zone": "Australia/Brisbane",
    "name_translations": {
      "en": "Abingdon"
    },
    "country_code": "AU"
  },
  {
    "code": "ABH",
    "name": "Альфа",
    "coordinates": {
      "lon": 146.63333,
      "lat": -23.65
    },
    "cases": null,
    "time_zone": "Australia/Brisbane",
    "name_translations": {
      "en": "Alpha"
    },
    "country_code": "AU"
  },
  {
    "code": "ABI",
    "name": "Абилин",
    "coordinates": {
      "lon": -99.7331439,
      "lat": 32.4487364
    },
    "cases": {
      "ro": "Абилина",
      "da": "Абилину",
      "vi": "в Абилин",
      "tv": "Абилиным",
      "pr": "Абилине"
    },
    "time_zone": "America/Chicago",
    "name_translations": {
      "en": "Abilene"
    },
    "country_code": "US"
  },
  {
    "code": "ABJ",
    "name": "Абиджан",
    "coordinates": {
      "lon": -3.933015,
      "lat": 5.254879
    },
    "cases": {
      "ro": "Абиджана",
      "da": "Абиджану",
      "vi": "в Абиджан",
      "tv": "Абиджаном",
      "pr": "Абиджане"
    },
    "time_zone": "Africa/Abidjan",
    "name_translations": {
      "en": "Abidjan"
    },
    "country_code": "CI"
  },
  {
    "code": "ABK",
    "name": "Кабри Дар",
    "coordinates": {
      "lon": 44.26611,
      "lat": 6.733889
    },
    "cases": {
      "ro": "Кабри-Дара",
      "da": "Кабри-Дару",
      "vi": "в Кабри-Дар",
      "tv": "Кабри-Даром",
      "pr": "Кабри-Даре"
    },
    "time_zone": "Africa/Addis_Ababa",
    "name_translations": {
      "en": "Kabri Dar"
    },
    "country_code": "ET"
  },
  {
    "code": "ABL",
    "name": "Амблер",
    "coordinates": {
      "lon": -157.84584,
      "lat": 67.0875
    },
    "cases": {
      "ro": "Амблера",
      "da": "Амблеру",
      "vi": "в Амблер",
      "tv": "Амблером",
      "pr": "Амблере"
    },
    "time_zone": "America/Anchorage",
    "name_translations": {
      "en": "Ambler"
    },
    "country_code": "US"
  },
  {
    "code": "ABM",
    "name": "Бамага",
    "coordinates": {
      "lon": 142.45033,
      "lat": -10.942619
    },
    "cases": {
      "ro": "Бамаги",
      "da": "Бамаге",
      "vi": "в Бамагу",
      "tv": "Бамагой",
      "pr": "Бамаге"
    },
    "time_zone": "Australia/Brisbane",
    "name_translations": {
      "en": "Bamaga"
    },
    "country_code": "AU"
  },
  {
    "code": "ABN",
    "name": "Албина",
    "coordinates": {
      "lon": -54.083332,
      "lat": 5.5
    },
    "cases": {
      "ro": "Альбиной",
      "da": "Альбине",
      "vi": "в Альбину",
      "tv": "Альбиной",
      "pr": "Альбине"
    },
    "time_zone": "America/Paramaribo",
    "name_translations": {
      "en": "Albina"
    },
    "country_code": "SR"
  },
  {
    "code": "ABO",
    "name": "Абуассо",
    "coordinates": {
      "lon": -3.216667,
      "lat": 5.433333
    },
    "cases": null,
    "time_zone": "Africa/Abidjan",
    "name_translations": {
      "en": "Aboisso"
    },
    "country_code": "CI"
  },
  {
    "code": "ABP",
    "name": "Аткамба",
    "coordinates": {
      "lon": 141.1,
      "lat": -6.066667
    },
    "cases": null,
    "time_zone": "Pacific/Port_Moresby",
    "name_translations": {
      "en": "Atkamba"
    },
    "country_code": "PG"
  },
  {
    "code": "ABQ",
    "name": "Альбукерке",
    "coordinates": {
      "lon": -106.617195,
      "lat": 35.049625
    },
    "cases": {
      "ro": "Альбукерке",
      "da": "Альбукерке",
      "vi": "в Альбукерке",
      "tv": "Альбукерке",
      "pr": "Альбукерке"
    },
    "time_zone": "America/Denver",
    "name_translations": {
      "en": "Albuquerque"
    },
    "country_code": "US"
  },
  {
    "code": "ABR",
    "name": "Абердин",
    "coordinates": {
      "lon": -98.42611,
      "lat": 45.4525
    },
    "cases": {
      "ro": "Абердина",
      "da": "Абердину",
      "vi": "в Абердин",
      "tv": "Абердином",
      "pr": "Абердине"
    },
    "time_zone": "America/Chicago",
    "name_translations": {
      "en": "Aberdeen"
    },
    "country_code": "US"
  },
  {
    "code": "ABS",
    "name": "Абу Симбел",
    "coordinates": {
      "lon": 31.609774,
      "lat": 22.367567
    },
    "cases": {
      "ro": "Абу-Симбеля",
      "da": "Абу-Симбелю",
      "vi": "в Абу-Симбель",
      "tv": "Абу-Симбелем",
      "pr": "Абу-Симбеле"
    },
    "time_zone": "Africa/Cairo",
    "name_translations": {
      "en": "Abu Simbel"
    },
    "country_code": "EG"
  },
  {
    "code": "ABT",
    "name": "Аль-Баха",
    "coordinates": {
      "lon": 41.64002,
      "lat": 20.29401
    },
    "cases": {
      "ro": "Аль-Бахи",
      "da": "Аль-Баху",
      "vi": "в Аль-Баху",
      "tv": "Аль-Бахой",
      "pr": "Аль-Бахе"
    },
    "time_zone": "Asia/Riyadh",
    "name_translations": {
      "en": "Al-Baha"
    },
    "country_code": "SA"
  },
  {
    "code": "ABU",
    "name": "Атамбуа",
    "coordinates": {
      "lon": 124.88333,
      "lat": -9.133333
    },
    "cases": {
      "ro": "Атамбуа",
      "da": "Атамбуа",
      "vi": "в Атамбуа",
      "tv": "Атамбуа",
      "pr": "Атамбуа"
    },
    "time_zone": "Asia/Makassar",
    "name_translations": {
      "en": "Atambua"
    },
    "country_code": "ID"
  },
  {
    "code": "ABV",
    "name": "Абуджа",
    "coordinates": {
      "lon": 7.270447,
      "lat": 9.004614
    },
    "cases": {
      "ro": "Абуджи",
      "da": "Абудже",
      "vi": "в Абуджу",
      "tv": "Абуджей",
      "pr": "Абудже"
    },
    "time_zone": "Africa/Lagos",
    "name_translations": {
      "en": "Abuja"
    },
    "country_code": "NG"
  },
  {
    "code": "ABW",
    "name": "Абау",
    "coordinates": {
      "lon": 148.7,
      "lat": -10.183333
    },
    "cases": {},
    "time_zone": "Pacific/Port_Moresby",
    "name_translations": {
      "en": "Abau"
    },
    "country_code": "PG"
  },
  {
    "code": "ABX",
    "name": "Олбери",
    "coordinates": {
      "lon": 146.95453,
      "lat": -36.069626
    },
    "cases": {
      "ro": "Олбери",
      "da": "Олбери",
      "vi": "в Олбери",
      "tv": "Олбери",
      "pr": "Олбери"
    },
    "time_zone": "Australia/Sydney",
    "name_translations": {
      "en": "Albury"
    },
    "country_code": "AU"
  },
  {
    "code": "ABY",
    "name": "Олбани",
    "coordinates": {
      "lon": -84.155741,
      "lat": 31.5785074
    },
    "cases": {
      "ro": "Олбани",
      "da": "Олбани",
      "vi": "в Олбани",
      "tv": "Олбани",
      "pr": "Олбани"
    },
    "time_zone": "America/New_York",
    "name_translations": {
      "en": "Albany"
    },
    "country_code": "US"
  },
  {
    "code": "ABZ",
    "name": "Абердин",
    "coordinates": {
      "lon": -2.095397,
      "lat": 57.1474915
    },
    "cases": {
      "ro": "Абердина",
      "da": "Абердину",
      "vi": "в Абердин",
      "tv": "Абердином",
      "pr": "Абердине"
    },
    "time_zone": "Europe/London",
    "name_translations": {
      "en": "Aberdeen"
    },
    "country_code": "GB"
  },
  {
    "code": "ACA",
    "name": "Акапулько",
    "coordinates": {
      "lon": -99.75459,
      "lat": 16.762403
    },
    "cases": {
      "ro": "Акапулько",
      "da": "Акапулько",
      "vi": "в Акапулько",
      "tv": "Акапулько",
      "pr": "Акапулько"
    },
    "time_zone": "America/Mexico_City",
    "name_translations": {
      "en": "Acapulco"
    },
    "country_code": "MX"
  },
  {
    "code": "ACB",
    "name": "Беллер",
    "coordinates": {
      "lon": -85.21667,
      "lat": 44.983334
    },
    "cases": null,
    "time_zone": "America/Detroit",
    "name_translations": {
      "en": "Bellaire"
    },
    "country_code": "US"
  },
  {
    "code": "ACC",
    "name": "Аккра",
    "coordinates": {
      "lon": -0.171769,
      "lat": 5.60737
    },
    "cases": {
      "ro": "Аккры",
      "da": "Аккре",
      "vi": "в Аккру",
      "tv": "Аккрой",
      "pr": "Аккре"
    },
    "time_zone": "Africa/Accra",
    "name_translations": {
      "en": "Accra"
    },
    "country_code": "GH"
  },
  {
    "code": "ACD",
    "name": "Аканди",
    "coordinates": {
      "lon": -77.3,
      "lat": 8.516667
    },
    "cases": {},
    "time_zone": "America/Bogota",
    "name_translations": {
      "en": "Acandi"
    },
    "country_code": "CO"
  },
  {
    "code": "ACE",
    "name": "Лансароте",
    "coordinates": {
      "lon": -13.609059,
      "lat": 28.950668
    },
    "cases": {
      "ro": "Лансароте",
      "da": "Лансароте",
      "vi": "в Лансароте",
      "tv": "Лансароте",
      "pr": "Лансароте"
    },
    "time_zone": "Atlantic/Canary",
    "name_translations": {
      "en": "Lanzarote"
    },
    "country_code": "ES"
  },
  {
    "code": "ACH",
    "name": "Санкт-Галлен",
    "coordinates": {
      "lon": 9.566667,
      "lat": 47.483334
    },
    "cases": {
      "ro": "Санкт-Галлена",
      "da": "Санкт-Галлен",
      "vi": "в Санкт-Галлен",
      "tv": "Санкт-Галленом",
      "pr": "Санкт-Галлене"
    },
    "time_zone": "Europe/Zurich",
    "name_translations": {
      "en": "Altenrhein"
    },
    "country_code": "CH"
  },
  {
    "code": "ACI",
    "name": "Олдерни",
    "coordinates": {
      "lon": -2.215369,
      "lat": 49.709347
    },
    "cases": {
      "ro": "Олдерни",
      "da": "Олдерни",
      "vi": "в Олдерни",
      "tv": "Олдерни",
      "pr": "Олдерни"
    },
    "time_zone": "Europe/Guernsey",
    "name_translations": {
      "en": "Alderney"
    },
    "country_code": "GB"
  },
  {
    "code": "ACJ",
    "name": "Анурадхапура",
    "coordinates": {
      "lon": 80.38333,
      "lat": 8.35
    },
    "cases": null,
    "time_zone": "Asia/Colombo",
    "name_translations": {
      "en": "Anuradhapura"
    },
    "country_code": "LK"
  },
  {
    "code": "ACK",
    "name": "Нантакет",
    "coordinates": {
      "lon": -70.05972,
      "lat": 41.256668
    },
    "cases": {
      "ro": "Нантакета",
      "da": "Нантакету",
      "vi": "в Нантакет",
      "tv": "Нантакетом",
      "pr": "Нантакете"
    },
    "time_zone": "America/New_York",
    "name_translations": {
      "en": "Nantucket"
    },
    "country_code": "US"
  },
  {
    "code": "ACL",
    "name": "Агуаклара",
    "coordinates": {
      "lon": -73.0,
      "lat": 4.75
    },
    "cases": null,
    "time_zone": "America/Bogota",
    "name_translations": {
      "en": "Aguaclara"
    },
    "country_code": "CO"
  },
  {
    "code": "ACM",
    "name": "Арика",
    "coordinates": {
      "lon": -71.833336,
      "lat": -2.0
    },
    "cases": null,
    "time_zone": "America/Bogota",
    "name_translations": {
      "en": "Arica"
    },
    "country_code": "CO"
  },
  {
    "code": "ACN",
    "name": "Акунья",
    "coordinates": {
      "lon": -100.916664,
      "lat": 29.3
    },
    "cases": null,
    "time_zone": "America/Matamoros",
    "name_translations": {
      "en": "Acuna"
    },
    "country_code": "MX"
  },
  {
    "code": "ACP",
    "name": "Саханд",
    "coordinates": {
      "lon": 46.145115,
      "lat": 37.347244
    },
    "cases": {},
    "time_zone": "Asia/Tehran",
    "name_translations": {
      "en": "Sahand"
    },
    "country_code": "IR"
  },
  {
    "code": "ACR",
    "name": "Араракуара",
    "coordinates": {
      "lon": -72.3,
      "lat": -0.383333
    },
    "cases": null,
    "time_zone": "America/Bogota",
    "name_translations": {
      "en": "Araracuara"
    },
    "country_code": "CO"
  },
  {
    "code": "ACS",
    "name": "Ачинск",
    "coordinates": {
      "lon": 90.566666,
      "lat": 56.266666
    },
    "cases": {
      "ro": "Ачинска",
      "da": "Ачинску",
      "vi": "в Ачинск",
      "tv": "Ачинском",
      "pr": "Ачинске"
    },
    "time_zone": "Asia/Krasnoyarsk",
    "name_translations": {
      "en": "Achinsk"
    },
    "country_code": "RU"
  },
  {
    "code": "ACT",
    "name": "Уэйко",
    "coordinates": {
      "lon": -97.1466695,
      "lat": 31.549333
    },
    "cases": {
      "ro": "Уэйко",
      "da": "Уэйко",
      "vi": "в Уэйко",
      "tv": "Уэйко",
      "pr": "Уэйко"
    },
    "time_zone": "America/Chicago",
    "name_translations": {
      "en": "Waco"
    },
    "country_code": "US"
  },
  {
    "code": "ACU",
    "name": "Ачутупо",
    "coordinates": {
      "lon": -79.72444,
      "lat": 9.576389
    },
    "cases": {
      "ro": "Ахутупо",
      "da": "Ахутупо",
      "vi": "в Ахутупо",
      "tv": "Ахутупо",
      "pr": "Ахутупо"
    },
    "time_zone": "America/Panama",
    "name_translations": {
      "en": "Achutupo"
    },
    "country_code": "PA"
  },
  {
    "code": "ACV",
    "name": "Арката",
    "coordinates": {
      "lon": -124.106926,
      "lat": 40.970913
    },
    "cases": {
      "ro": "Аркаты",
      "da": "Аркате",
      "vi": "в Аркату",
      "tv": "Аркатой",
      "pr": "Аркате"
    },
    "time_zone": "America/Los_Angeles",
    "name_translations": {
      "en": "Arcata"
    },
    "country_code": "US"
  },
  {
    "code": "ACX",
    "name": "Синъи",
    "coordinates": {
      "lon": 104.95944,
      "lat": 25.085556
    },
    "cases": {
      "ro": "Синъи",
      "da": "Синъи",
      "vi": "в Синъи",
      "tv": "Синъи",
      "pr": "Синъи"
    },
    "time_zone": "Asia/Shanghai",
    "name_translations": {
      "en": "Xingyi"
    },
    "country_code": "CN"
  },
  {
    "code": "ACZ",
    "name": "Заболь",
    "coordinates": {
      "lon": 61.542244,
      "lat": 31.087694
    },
    "cases": {
      "ro": "Забола",
      "da": "Заболу",
      "vi": "в Забол",
      "tv": "Заболом",
      "pr": "Заболе"
    },
    "time_zone": "Asia/Tehran",
    "name_translations": {
      "en": "Zabol"
    },
    "country_code": "IR"
  },
  {
    "code": "ADA",
    "name": "Адана",
    "coordinates": {
      "lon": 35.3213333,
      "lat": 37.0
    },
    "cases": {
      "ro": "Аданы",
      "da": "Адане",
      "vi": "в Адану",
      "tv": "Аданой",
      "pr": "Адане"
    },
    "time_zone": "Europe/Istanbul",
    "name_translations": {
      "en": "Adana"
    },
    "country_code": "TR"
  },
  {
    "code": "ADC",
    "name": "Андакомбе",
    "coordinates": {
      "lon": 145.73334,
      "lat": -7.133333
    },
    "cases": null,
    "time_zone": "Pacific/Port_Moresby",
    "name_translations": {
      "en": "Andakombe"
    },
    "country_code": "PG"
  },
  {
    "code": "ADD",
    "name": "Аддис-Абеба",
    "coordinates": {
      "lon": 38.7959,
      "lat": 8.983759
    },
    "cases": {
      "ro": "Аддис-Абебы",
      "da": "Аддис-Абебу",
      "vi": "в Аддис-Абебу",
      "tv": "Аддис-Абебой",
      "pr": "Аддис-Абебе"
    },
    "time_zone": "Africa/Addis_Ababa",
    "name_translations": {
      "en": "Addis Ababa"
    },
    "country_code": "ET"
  },
  {
    "code": "ADE",
    "name": "Аден",
    "coordinates": {
      "lon": 45.037537,
      "lat": 12.826116
    },
    "cases": {
      "ro": "Адена",
      "da": "Адену",
      "vi": "в Аден",
      "tv": "Аденом",
      "pr": "Адене"
    },
    "time_zone": "Asia/Aden",
    "name_translations": {
      "en": "Aden"
    },
    "country_code": "YE"
  },
  {
    "code": "ADF",
    "name": "Адыяман",
    "coordinates": {
      "lon": 38.266666,
      "lat": 37.75
    },
    "cases": {
      "ro": "Адыямана",
      "da": "Адыяману",
      "vi": "в Адыяман",
      "tv": "Адыяманом",
      "pr": "Адыямане"
    },
    "time_zone": "Europe/Istanbul",
    "name_translations": {
      "en": "Adiyaman"
    },
    "country_code": "TR"
  },
  {
    "code": "ADG",
    "name": "Адриан",
    "coordinates": {
      "lon": -84.03333,
      "lat": 41.9
    },
    "cases": null,
    "time_zone": "America/Detroit",
    "name_translations": {
      "en": "Adrian"
    },
    "country_code": "US"
  },
  {
    "code": "ADH",
    "name": "Алдан",
    "coordinates": {
      "lon": 125.4,
      "lat": 58.6
    },
    "cases": {
      "ro": "Алдана",
      "da": "Алдану",
      "vi": "в Алдан",
      "tv": "Алданом",
      "pr": "Алдане"
    },
    "time_zone": "Asia/Yakutsk",
    "name_translations": {
      "en": "Aldan"
    },
    "country_code": "RU"
  },
  {
    "code": "ADI",
    "name": "Арандис",
    "coordinates": {
      "lon": 15.0,
      "lat": -22.4
    },
    "cases": null,
    "time_zone": "Africa/Windhoek",
    "name_translations": {
      "en": "Arandis"
    },
    "country_code": "NA"
  },
  {
    "code": "ADK",
    "name": "Адак",
    "coordinates": {
      "lon": -176.64473,
      "lat": 51.88278
    },
    "cases": null,
    "time_zone": "America/Adak",
    "name_translations": {
      "en": "Adak Island"
    },
    "country_code": "US"
  },
  {
    "code": "ADL",
    "name": "Аделаида",
    "coordinates": {
      "lon": 138.5999594,
      "lat": -34.9286212
    },
    "cases": {
      "ro": "Аделаиды",
      "da": "Аделаиде",
      "vi": "в Аделаиду",
      "tv": "Аделаидой",
      "pr": "Аделаиде"
    },
    "time_zone": "Australia/Adelaide",
    "name_translations": {
      "en": "Adelaide"
    },
    "country_code": "AU"
  },
  {
    "code": "ADN",
    "name": "Андес",
    "coordinates": {
      "lon": -75.933334,
      "lat": 5.666667
    },
    "cases": {
      "ro": "Андеса",
      "da": "Андесу",
      "vi": "в Андес",
      "tv": "Андесом",
      "pr": "Андесе"
    },
    "time_zone": "America/Bogota",
    "name_translations": {
      "en": "Andes"
    },
    "country_code": "CO"
  },
  {
    "code": "ADO",
    "name": "Андамука",
    "coordinates": {
      "lon": 137.15,
      "lat": -31.016666
    },
    "cases": null,
    "time_zone": "Australia/Adelaide",
    "name_translations": {
      "en": "Andamooka"
    },
    "country_code": "AU"
  },
  {
    "code": "ADQ",
    "name": "Кадьяк",
    "coordinates": {
      "lon": -152.4072222,
      "lat": 57.79
    },
    "cases": {
      "ro": "Кадьяка",
      "da": "Кадьяку",
      "vi": "в Кадьяка",
      "tv": "Кадьяком",
      "pr": "Кадьяке"
    },
    "time_zone": "America/Anchorage",
    "name_translations": {
      "en": "Kodiak"
    },
    "country_code": "US"
  },
  {
    "code": "ADR",
    "name": "Эндрюс",
    "coordinates": {
      "lon": -79.566666,
      "lat": 33.45
    },
    "cases": null,
    "time_zone": "America/New_York",
    "name_translations": {
      "en": "Andrews"
    },
    "country_code": "US"
  },
  {
    "code": "ADT",
    "name": "Ада",
    "coordinates": {
      "lon": -96.666664,
      "lat": 34.8
    },
    "cases": {
      "ro": "Ады",
      "da": "Аде",
      "vi": "в Аду",
      "tv": "Адой",
      "pr": "Аде"
    },
    "time_zone": "America/Chicago",
    "name_translations": {
      "en": "Ada"
    },
    "country_code": "US"
  },
  {
    "code": "ADU",
    "name": "Ардабил",
    "coordinates": {
      "lon": 48.42125,
      "lat": 38.323826
    },
    "cases": {
      "ro": "Ардабила",
      "da": "Ардабилу",
      "vi": "в Ардабил",
      "tv": "Ардабилом",
      "pr": "Ардабиле"
    },
    "time_zone": "Asia/Tehran",
    "name_translations": {
      "en": "Ardabil"
    },
    "country_code": "IR"
  },
  {
    "code": "ADW",
    "name": "Камп Спрингс",
    "coordinates": {
      "lon": -76.86667,
      "lat": 38.816666
    },
    "cases": null,
    "time_zone": "America/New_York",
    "name_translations": {
      "en": "Camp Springs"
    },
    "country_code": "US"
  },
  {
    "code": "ADX",
    "name": "Сент-Эндрюс",
    "coordinates": {
      "lon": -2.866667,
      "lat": 56.36667
    },
    "cases": null,
    "time_zone": "Europe/London",
    "name_translations": {
      "en": "St Andrews"
    },
    "country_code": "GB"
  },
  {
    "code": "ADY",
    "name": "Олдэйс",
    "coordinates": {
      "lon": 29.05,
      "lat": -22.666668
    },
    "cases": null,
    "time_zone": "Africa/Johannesburg",
    "name_translations": {
      "en": "Alldays"
    },
    "country_code": "ZA"
  },
  {
    "code": "ADZ",
    "name": "Остров Сан-Андрес",
    "coordinates": {
      "lon": -81.70221,
      "lat": 12.586047
    },
    "cases": {
      "ro": "Острова Сан-Андрес",
      "da": "Острову Сан-Андрес",
      "vi": "на Остров Сан-Андрес",
      "tv": "Островом Сан-Андрес",
      "pr": "Острове Сан-Андрес"
    },
    "time_zone": "America/Bogota",
    "name_translations": {
      "en": "San Andres Island"
    },
    "country_code": "CO"
  },
  {
    "code": "AEA",
    "name": "Абемама",
    "coordinates": {
      "lon": 173.85,
      "lat": 0.483333
    },
    "cases": {
      "ro": "Абемамы-Атолл",
      "da": "Абемаме-Атолл",
      "vi": "в Абемама-Атолл",
      "tv": "Абемамой-Атолл",
      "pr": "Абемаме-Атолл"
    },
    "time_zone": "Pacific/Tarawa",
    "name_translations": {
      "en": "Abemama Atoll"
    },
    "country_code": "KI"
  },
  {
    "code": "AED",
    "name": "Аленива",
    "coordinates": {
      "lon": -152.9,
      "lat": 58.033333
    },
    "cases": null,
    "time_zone": "America/Anchorage",
    "name_translations": {
      "en": "Aleneva"
    },
    "country_code": "US"
  },
  {
    "code": "AEG",
    "name": "Аек Годанг",
    "coordinates": {
      "lon": 99.416664,
      "lat": 1.399722
    },
    "cases": null,
    "time_zone": "Asia/Jakarta",
    "name_translations": {
      "en": "Aek Godang"
    },
    "country_code": "ID"
  },
  {
    "code": "AEH",
    "name": "Абеше",
    "coordinates": {
      "lon": 20.850834,
      "lat": 13.851389
    },
    "cases": {},
    "time_zone": "Africa/Ndjamena",
    "name_translations": {
      "en": "Abéché"
    },
    "country_code": "TD"
  },
  {
    "code": "AEI",
    "name": "Альхесирас",
    "coordinates": {
      "lon": -5.441301,
      "lat": 36.1289
    },
    "cases": {
      "ro": "Альгесираса",
      "da": "Альгесирасу",
      "vi": "в Альгесирас",
      "tv": "Альгесирасом",
      "pr": "Альгесирасе"
    },
    "time_zone": "Europe/Madrid",
    "name_translations": {
      "en": "Algeciras"
    },
    "country_code": "ES"
  },
  {
    "code": "AEK",
    "name": "Асеки",
    "coordinates": {
      "lon": 146.28334,
      "lat": -7.366667
    },
    "cases": {
      "ro": "Асеки",
      "da": "Асеки",
      "vi": "в Асеки",
      "tv": "Асеки",
      "pr": "Асеки"
    },
    "time_zone": "Pacific/Port_Moresby",
    "name_translations": {
      "en": "Aseki"
    },
    "country_code": "PG"
  },
  {
    "code": "AEL",
    "name": "Альберт-Ли",
    "coordinates": {
      "lon": -93.36667,
      "lat": 43.65
    },
    "cases": {
      "ro": "Альберта Ли",
      "da": "Альберту Ли",
      "vi": "в Альберта Ли",
      "tv": "Альбертом Ли",
      "pr": "Альберте Ли"
    },
    "time_zone": "America/Chicago",
    "name_translations": {
      "en": "Albert Lea"
    },
    "country_code": "US"
  },
  {
    "code": "AEO",
    "name": "Аюн-эль-Атрус",
    "coordinates": {
      "lon": -9.635556,
      "lat": 16.709167
    },
    "cases": null,
    "time_zone": "Africa/Nouakchott",
    "name_translations": {
      "en": "Aioun El Atrouss"
    },
    "country_code": "MR"
  },
  {
    "code": "AER",
    "name": "Сочи (Адлер)",
    "coordinates": {
      "lon": 39.941105,
      "lat": 43.44884
    },
    "cases": {
      "ro": "Сочи",
      "da": "Сочи",
      "vi": "в Сочи",
      "tv": "Сочи",
      "pr": "Сочи"
    },
    "time_zone": "Europe/Moscow",
    "name_translations": {
      "en": "Adler/Sochi"
    },
    "country_code": "RU"
  },
  {
    "code": "AES",
    "name": "Олесунн",
    "coordinates": {
      "lon": 6.116605,
      "lat": 62.559643
    },
    "cases": {
      "ro": "Олесунна",
      "da": "Олесунну",
      "vi": "в Олесунн",
      "tv": "Олесунном",
      "pr": "Олесунне"
    },
    "time_zone": "Europe/Oslo",
    "name_translations": {
      "en": "Aalesund"
    },
    "country_code": "NO"
  },
  {
    "code": "AET",
    "name": "Аллакакет",
    "coordinates": {
      "lon": -152.65834,
      "lat": 66.56167
    },
    "cases": {},
    "time_zone": "America/Anchorage",
    "name_translations": {
      "en": "Allakaket"
    },
    "country_code": "US"
  },
  {
    "code": "AEU",
    "name": "Абу Муса",
    "coordinates": {
      "lon": 55.041668,
      "lat": 25.8875
    },
    "cases": null,
    "time_zone": "Asia/Tehran",
    "name_translations": {
      "en": "Abu Musa"
    },
    "country_code": "IR"
  },
  {
    "code": "AEX",
    "name": "Александрия",
    "coordinates": {
      "lon": -92.4451371,
      "lat": 31.3112936
    },
    "cases": {
      "ro": "Александрии",
      "da": "Александрии",
      "vi": "в Александрию",
      "tv": "Александрией",
      "pr": "Александрии"
    },
    "time_zone": "America/Chicago",
    "name_translations": {
      "en": "Alexandria"
    },
    "country_code": "US"
  },
  {
    "code": "AEY",
    "name": "Акюрейри",
    "coordinates": {
      "lon": -18.075068,
      "lat": 65.654564
    },
    "cases": {
      "ro": "Акюрейри",
      "da": "Акюрейри",
      "vi": "в Акюрейри",
      "tv": "Акюрейри",
      "pr": "Акюрейри"
    },
    "time_zone": "Atlantic/Reykjavik",
    "name_translations": {
      "en": "Akureyri"
    },
    "country_code": "IS"
  },
  {
    "code": "AFA",
    "name": "Сан-Рафаэль",
    "coordinates": {
      "lon": -68.40056,
      "lat": -34.58917
    },
    "cases": {
      "ro": "Сан-Рафаэля",
      "da": "Сан-Рафаэлю",
      "vi": "в Сан-Рафаэль",
      "tv": "Сан-Рафаэлем",
      "pr": "Сан-Рафаэле"
    },
    "time_zone": "America/Argentina/Mendoza",
    "name_translations": {
      "en": "San Rafael"
    },
    "country_code": "AR"
  },
  {
    "code": "AFD",
    "name": "Порт Альфред",
    "coordinates": {
      "lon": 26.883333,
      "lat": -33.583332
    },
    "cases": null,
    "time_zone": "Africa/Johannesburg",
    "name_translations": {
      "en": "Port Alfred"
    },
    "country_code": "ZA"
  },
  {
    "code": "AFI",
    "name": "Амальфи",
    "coordinates": {
      "lon": -75.066666,
      "lat": 6.916667
    },
    "cases": {},
    "time_zone": "America/Bogota",
    "name_translations": {
      "en": "Amalfi"
    },
    "country_code": "CO"
  },
  {
    "code": "AFL",
    "name": "Алта-Флореста",
    "coordinates": {
      "lon": -56.104767,
      "lat": -9.872456
    },
    "cases": {
      "ro": "Алта-Флоресты",
      "da": "Алта-Флоресте",
      "vi": "в Алта-Флоресту",
      "tv": "Алта-Флорестой",
      "pr": "Алта-Флоресте"
    },
    "time_zone": "America/Cuiaba",
    "name_translations": {
      "en": "Alta Floresta"
    },
    "country_code": "BR"
  },
  {
    "code": "AFN",
    "name": "Джаффри",
    "coordinates": {
      "lon": -72.066666,
      "lat": 42.833332
    },
    "cases": null,
    "time_zone": "America/New_York",
    "name_translations": {
      "en": "Jaffrey"
    },
    "country_code": "US"
  },
  {
    "code": "AFO",
    "name": "Афтон",
    "coordinates": {
      "lon": -110.933334,
      "lat": 42.733334
    },
    "cases": null,
    "time_zone": "America/Denver",
    "name_translations": {
      "en": "Afton"
    },
    "country_code": "US"
  },
  {
    "code": "AFR",
    "name": "Афор",
    "coordinates": {
      "lon": 148.38333,
      "lat": -9.133333
    },
    "cases": null,
    "time_zone": "Pacific/Port_Moresby",
    "name_translations": {
      "en": "Afore"
    },
    "country_code": "PG"
  },
  {
    "code": "AFS",
    "name": "Зарафшан",
    "coordinates": {
      "lon": 64.233055,
      "lat": 41.61361
    },
    "cases": null,
    "time_zone": "Asia/Samarkand",
    "name_translations": {
      "en": "Zarafshan"
    },
    "country_code": "UZ"
  },
  {
    "code": "AFT",
    "name": "Афутара",
    "coordinates": {
      "lon": 160.85,
      "lat": -9.2
    },
    "cases": {
      "ro": "Афутары",
      "da": "Афутаре",
      "vi": "в Афутару",
      "tv": "Афутарой",
      "pr": "Афутаре"
    },
    "time_zone": "Pacific/Guadalcanal",
    "name_translations": {
      "en": "Afutara"
    },
    "country_code": "SB"
  },
  {
    "code": "AFY",
    "name": "Афьонкарахисар",
    "coordinates": {
      "lon": 30.6,
      "lat": 38.733334
    },
    "cases": {
      "ro": "Афиона",
      "da": "Афиону",
      "vi": "в Афион",
      "tv": "Афионом",
      "pr": "Афионе"
    },
    "time_zone": "Europe/Istanbul",
    "name_translations": {
      "en": "Afyon"
    },
    "country_code": "TR"
  },
  {
    "code": "AFZ",
    "name": "Себзевар",
    "coordinates": {
      "lon": 57.60332,
      "lat": 36.171513
    },
    "cases": null,
    "time_zone": "Asia/Tehran",
    "name_translations": {
      "en": "Sabzevar"
    },
    "country_code": "IR"
  },
  {
    "code": "AGA",
    "name": "Агадир",
    "coordinates": {
      "lon": -9.555895,
      "lat": 30.378326
    },
    "cases": {
      "ro": "Агадира",
      "da": "Агадиру",
      "vi": "в Агадир",
      "tv": "Агадиром",
      "pr": "Агадире"
    },
    "time_zone": "Africa/Casablanca",
    "name_translations": {
      "en": "Agadir"
    },
    "country_code": "MA"
  },
  {
    "code": "AGD",
    "name": "Ангги",
    "coordinates": {
      "lon": 133.86667,
      "lat": -1.383333
    },
    "cases": null,
    "time_zone": "Asia/Jayapura",
    "name_translations": {
      "en": "Anggi"
    },
    "country_code": "ID"
  },
  {
    "code": "AGE",
    "name": "Вангероге",
    "coordinates": {
      "lon": 7.916667,
      "lat": 53.783333
    },
    "cases": {
      "ro": "Вангерооге",
      "da": "Вангерооге",
      "vi": "в Вангерооге",
      "tv": "Вангерооге",
      "pr": "Вангерооге"
    },
    "time_zone": "Europe/Berlin",
    "name_translations": {
      "en": "Wangerooge"
    },
    "country_code": "DE"
  },
  {
    "code": "AGF",
    "name": "Ажен",
    "coordinates": {
      "lon": 0.598611,
      "lat": 44.17361
    },
    "cases": {
      "ro": "Ажена",
      "da": "Ажену",
      "vi": "в Ажен",
      "tv": "Аженом",
      "pr": "Ажене"
    },
    "time_zone": "Europe/Paris",
    "name_translations": {
      "en": "Agen"
    },
    "country_code": "FR"
  },
  {
    "code": "AGG",
    "name": "Ангорам",
    "coordinates": {
      "lon": 144.07388,
      "lat": -4.168611
    },
    "cases": {},
    "time_zone": "Pacific/Port_Moresby",
    "name_translations": {
      "en": "Angoram"
    },
    "country_code": "PG"
  },
  {
    "code": "AGH",
    "name": "Энгельхольм",
    "coordinates": {
      "lon": 12.8615092,
      "lat": 56.2432
    },
    "cases": {
      "ro": "Энгельхольма",
      "da": "Энгельхольму",
      "vi": "в Энгельхольм",
      "tv": "Энгельхольмом",
      "pr": "Энгельхольме"
    },
    "time_zone": "Europe/Stockholm",
    "name_translations": {
      "en": "Angelholm/Helsingborg"
    },
    "country_code": "SE"
  },
  {
    "code": "AGI",
    "name": "Вагенинген",
    "coordinates": {
      "lon": -56.833332,
      "lat": 5.833333
    },
    "cases": {
      "ro": "Вагенингена",
      "da": "Вагенингену",
      "vi": "в Вагенинген",
      "tv": "Вагенингеном",
      "pr": "Вагенингене"
    },
    "time_zone": "America/Paramaribo",
    "name_translations": {
      "en": "Wageningen"
    },
    "country_code": "SR"
  },
  {
    "code": "AGJ",
    "name": "Агуни",
    "coordinates": {
      "lon": 127.23805,
      "lat": 26.589722
    },
    "cases": null,
    "time_zone": "Asia/Tokyo",
    "name_translations": {
      "en": "Aguni"
    },
    "country_code": "JP"
  },
  {
    "code": "AGK",
    "name": "Кагуа",
    "coordinates": {
      "lon": 143.84666,
      "lat": -6.403333
    },
    "cases": null,
    "time_zone": "Pacific/Port_Moresby",
    "name_translations": {
      "en": "Kagua"
    },
    "country_code": "PG"
  },
  {
    "code": "AGL",
    "name": "Ванигела",
    "coordinates": {
      "lon": 149.15527,
      "lat": -9.340278
    },
    "cases": {
      "ro": "Ванигелы",
      "da": "Ванигеле",
      "vi": "в Ванигелу",
      "tv": "Ванигелой",
      "pr": "Ванигеле"
    },
    "time_zone": "Pacific/Port_Moresby",
    "name_translations": {
      "en": "Wanigela"
    },
    "country_code": "PG"
  },
  {
    "code": "AGM",
    "name": "Тасиилак",
    "coordinates": {
      "lon": -37.683334,
      "lat": 65.6
    },
    "cases": {},
    "time_zone": "America/Godthab",
    "name_translations": {
      "en": "Tasiilaq"
    },
    "country_code": "GL"
  },
  {
    "code": "AGN",
    "name": "Ангун",
    "coordinates": {
      "lon": -134.58333,
      "lat": 57.503887
    },
    "cases": null,
    "time_zone": "America/Juneau",
    "name_translations": {
      "en": "Angoon"
    },
    "country_code": "US"
  },
  {
    "code": "AGO",
    "name": "Магнолиа",
    "coordinates": {
      "lon": -93.23333,
      "lat": 33.266666
    },
    "cases": null,
    "time_zone": "America/Chicago",
    "name_translations": {
      "en": "Magnolia"
    },
    "country_code": "US"
  },
  {
    "code": "AGP",
    "name": "Малага",
    "coordinates": {
      "lon": -4.4200163,
      "lat": 36.7196484
    },
    "cases": {
      "ro": "Малаги",
      "da": "Малаге",
      "vi": "в Малагу",
      "tv": "Малагой",
      "pr": "Малаге"
    },
    "time_zone": "Europe/Madrid",
    "name_translations": {
      "en": "Malaga"
    },
    "country_code": "ES"
  },
  {
    "code": "AGQ",
    "name": "Агринион",
    "coordinates": {
      "lon": 21.351944,
      "lat": 38.604168
    },
    "cases": {
      "ro": "Агринио",
      "da": "Агринио",
      "vi": "в Агринио",
      "tv": "Агринио",
      "pr": "Агринио"
    },
    "time_zone": "Europe/Athens",
    "name_translations": {
      "en": "Agrinion"
    },
    "country_code": "GR"
  },
  {
    "code": "AGR",
    "name": "Агра",
    "coordinates": {
      "lon": 77.962776,
      "lat": 27.158333
    },
    "cases": {
      "ro": "Агры",
      "da": "Агре",
      "vi": "в Агру",
      "tv": "Агрой",
      "pr": "Агре"
    },
    "time_zone": "Asia/Kolkata",
    "name_translations": {
      "en": "Agra"
    },
    "country_code": "IN"
  },
  {
    "code": "AGS",
    "name": "Огаста",
    "coordinates": {
      "lon": -82.00967,
      "lat": 33.474246
    },
    "cases": {
      "ro": "Огасты",
      "da": "Огасте",
      "vi": "в Огасту",
      "tv": "Огастой",
      "pr": "Огасте"
    },
    "time_zone": "America/New_York",
    "name_translations": {
      "en": "Augusta"
    },
    "country_code": "US"
  },
  {
    "code": "AGT",
    "name": "Сьюдад-дель-Эсте",
    "coordinates": {
      "lon": -54.833332,
      "lat": -25.5
    },
    "cases": {
      "ro": "Сьюдад-дель-Эсте",
      "da": "Сьюдад-дель-Эсте",
      "vi": "в Сьюдад-дель-Эсте",
      "tv": "Сьюдад-дель-Эсте",
      "pr": "Сьюдад-дель-Эсте"
    },
    "time_zone": "America/Asuncion",
    "name_translations": {
      "en": "Ciudad del Este"
    },
    "country_code": "PY"
  },
  {
    "code": "AGU",
    "name": "Агуаскальентес",
    "coordinates": {
      "lon": -102.31374,
      "lat": 21.701416
    },
    "cases": {
      "ro": "Агуаскальентеса",
      "da": "Агуаскальентесу",
      "vi": "в Агуаскальентес",
      "tv": "Агуаскальентесом",
      "pr": "Агуаскальентесе"
    },
    "time_zone": "America/Mexico_City",
    "name_translations": {
      "en": "Aguascalientes"
    },
    "country_code": "MX"
  },
  {
    "code": "AGV",
    "name": "Акаригуа",
    "coordinates": {
      "lon": -69.23333,
      "lat": 9.552222
    },
    "cases": {
      "ro": "Акарикуа",
      "da": "Акарикуа",
      "vi": "в Акарикуа",
      "tv": "Акарикуа",
      "pr": "Акарикуа"
    },
    "time_zone": "America/Caracas",
    "name_translations": {
      "en": "Acarigua"
    },
    "country_code": "VE"
  },
  {
    "code": "AGW",
    "name": "Агнью",
    "coordinates": {
      "lon": 142.15,
      "lat": -12.15
    },
    "cases": null,
    "time_zone": "Australia/Brisbane",
    "name_translations": {
      "en": "Agnew"
    },
    "country_code": "AU"
  },
  {
    "code": "AGX",
    "name": "Агатти",
    "coordinates": {
      "lon": 72.17987,
      "lat": 10.828967
    },
    "cases": {
      "ro": "Агатти",
      "da": "Агатти",
      "vi": "в Агатти",
      "tv": "Агатти",
      "pr": "Агатти"
    },
    "time_zone": "Asia/Kolkata",
    "name_translations": {
      "en": "Agatti Island"
    },
    "country_code": "IN"
  },
  {
    "code": "AGZ",
    "name": "Аггенейс",
    "coordinates": {
      "lon": 18.85,
      "lat": -29.05
    },
    "cases": {
      "ro": "Аггенейза",
      "da": "Аггенейзу",
      "vi": "в Аггенейз",
      "tv": "Аггенейзом",
      "pr": "Аггенейзе"
    },
    "time_zone": "Africa/Johannesburg",
    "name_translations": {
      "en": "Aggeneys"
    },
    "country_code": "ZA"
  },
  {
    "code": "AHB",
    "name": "Абха",
    "coordinates": {
      "lon": 42.657574,
      "lat": 18.23429
    },
    "cases": {
      "ro": "Абхи",
      "da": "Абхе",
      "vi": "в Абху",
      "tv": "Абхой",
      "pr": "Абхе"
    },
    "time_zone": "Asia/Riyadh",
    "name_translations": {
      "en": "Abha"
    },
    "country_code": "SA"
  },
  {
    "code": "AHC",
    "name": "Херлонг",
    "coordinates": {
      "lon": -120.13333,
      "lat": 40.15
    },
    "cases": null,
    "time_zone": "America/Los_Angeles",
    "name_translations": {
      "en": "Herlong"
    },
    "country_code": "US"
  },
  {
    "code": "AHE",
    "name": "Ахе",
    "coordinates": {
      "lon": -146.25694,
      "lat": -14.428056
    },
    "cases": null,
    "time_zone": "Pacific/Tahiti",
    "name_translations": {
      "en": "Ahe"
    },
    "country_code": "PF"
  },
  {
    "code": "AHF",
    "name": "Арапахо",
    "coordinates": {
      "lon": -99.9,
      "lat": 40.3
    },
    "cases": null,
    "time_zone": "America/Chicago",
    "name_translations": {
      "en": "Arapahoe"
    },
    "country_code": "US"
  },
  {
    "code": "AHH",
    "name": "Амери",
    "coordinates": {
      "lon": -92.35,
      "lat": 45.3
    },
    "cases": {},
    "time_zone": "America/Chicago",
    "name_translations": {
      "en": "Amery"
    },
    "country_code": "US"
  },
  {
    "code": "AHI",
    "name": "Амахаи",
    "coordinates": {
      "lon": 128.91667,
      "lat": -3.333333
    },
    "cases": {
      "ro": "Амахаи",
      "da": "Амахаи",
      "vi": "в Амахаи",
      "tv": "Амахаи",
      "pr": "Амахаи"
    },
    "time_zone": "Asia/Jayapura",
    "name_translations": {
      "en": "Amahai"
    },
    "country_code": "ID"
  },
  {
    "code": "AHL",
    "name": "Аишалтон",
    "coordinates": {
      "lon": -59.316666,
      "lat": 2.483333
    },
    "cases": {
      "ro": "Аисхалтона",
      "da": "Аисхалтону",
      "vi": "в Аисхалтон",
      "tv": "Аисхалтоном",
      "pr": "Аисхалтоне"
    },
    "time_zone": "America/Guyana",
    "name_translations": {
      "en": "Aishalton"
    },
    "country_code": "GY"
  },
  {
    "code": "AHN",
    "name": "Атенс",
    "coordinates": {
      "lon": -83.32472,
      "lat": 33.95195
    },
    "cases": {},
    "time_zone": "America/New_York",
    "name_translations": {
      "en": "Athens"
    },
    "country_code": "US"
  },
  {
    "code": "AHO",
    "name": "Альгеро",
    "coordinates": {
      "lon": 8.295891,
      "lat": 40.630405
    },
    "cases": {
      "ro": "Альгеро",
      "da": "Альгеро",
      "vi": "в Альгеро",
      "tv": "Альгеро",
      "pr": "Альгеро"
    },
    "time_zone": "Europe/Rome",
    "name_translations": {
      "en": "Alghero"
    },
    "country_code": "IT"
  },
  {
    "code": "AHS",
    "name": "Ауас",
    "coordinates": {
      "lon": -84.425,
      "lat": 15.441667
    },
    "cases": {
      "ro": "Ахуаса",
      "da": "Ахуасу",
      "vi": "в Ахуас",
      "tv": "Ахуасом",
      "pr": "Ахуасе"
    },
    "time_zone": "America/Tegucigalpa",
    "name_translations": {
      "en": "Ahuas"
    },
    "country_code": "HN"
  },
  {
    "code": "AHT",
    "name": "Амчитка",
    "coordinates": {
      "lon": 179.0,
      "lat": 51.5
    },
    "cases": null,
    "time_zone": "America/Adak",
    "name_translations": {
      "en": "Amchitka"
    },
    "country_code": "US"
  },
  {
    "code": "AHU",
    "name": "Эль-Хосейма",
    "coordinates": {
      "lon": -3.836944,
      "lat": 35.17972
    },
    "cases": {
      "ro": "Эль-Хосеймы",
      "da": "Эль-Хосейме",
      "vi": "в Эль-Хосейму",
      "tv": "Эль-Хосеймой",
      "pr": "Эль-Хосейме"
    },
    "time_zone": "Africa/Casablanca",
    "name_translations": {
      "en": "Al Hoceima"
    },
    "country_code": "MA"
  },
  {
    "code": "AHY",
    "name": "Амбатолахи",
    "coordinates": {
      "lon": 45.533333,
      "lat": -20.016666
    },
    "cases": {
      "ro": "Амбатолахи",
      "da": "Амбатолахи",
      "vi": "в Амбатолахи",
      "tv": "Амбатолахи",
      "pr": "Амбатолахи"
    },
    "time_zone": "Indian/Antananarivo",
    "name_translations": {
      "en": "Ambatolahy"
    },
    "country_code": "MG"
  },
  {
    "code": "AHZ",
    "name": "Альп-д'Юэз",
    "coordinates": {
      "lon": 6.083333,
      "lat": 45.083332
    },
    "cases": null,
    "time_zone": "Europe/Paris",
    "name_translations": {
      "en": "Alpe D Huez"
    },
    "country_code": "FR"
  },
  {
    "code": "AIA",
    "name": "Альянс",
    "coordinates": {
      "lon": -102.80666,
      "lat": 42.051666
    },
    "cases": {
      "ro": "Альянса",
      "da": "Альянсу",
      "vi": "в Альянс",
      "tv": "Альянсом",
      "pr": "Альянсе"
    },
    "time_zone": "America/Denver",
    "name_translations": {
      "en": "Alliance"
    },
    "country_code": "US"
  },
  {
    "code": "AIB",
    "name": "Залив Анита",
    "coordinates": {
      "lon": -132.38333,
      "lat": 56.233334
    },
    "cases": null,
    "time_zone": "America/Sitka",
    "name_translations": {
      "en": "Anita Bay"
    },
    "country_code": "US"
  },
  {
    "code": "AIC",
    "name": "Аирок",
    "coordinates": {
      "lon": 170.83333,
      "lat": 7.5
    },
    "cases": {},
    "time_zone": "Pacific/Majuro",
    "name_translations": {
      "en": "Airok"
    },
    "country_code": "MH"
  },
  {
    "code": "AID",
    "name": "Андерсон",
    "coordinates": {
      "lon": -85.683334,
      "lat": 40.166668
    },
    "cases": null,
    "time_zone": "America/Indiana/Indianapolis",
    "name_translations": {
      "en": "Anderson"
    },
    "country_code": "US"
  },
  {
    "code": "AIE",
    "name": "Айоме",
    "coordinates": {
      "lon": 144.66667,
      "lat": -5.166667
    },
    "cases": {
      "ro": "Айоме",
      "da": "Айоме",
      "vi": "в Айоме",
      "tv": "Айоме",
      "pr": "Айоме"
    },
    "time_zone": "Pacific/Port_Moresby",
    "name_translations": {
      "en": "Aiome"
    },
    "country_code": "PG"
  },
  {
    "code": "AIF",
    "name": "Ассис",
    "coordinates": {
      "lon": -50.416668,
      "lat": -22.666668
    },
    "cases": null,
    "time_zone": "America/Sao_Paulo",
    "name_translations": {
      "en": "Assis"
    },
    "country_code": "BR"
  },
  {
    "code": "AIG",
    "name": "Ялинга",
    "coordinates": {
      "lon": 23.25,
      "lat": 6.516667
    },
    "cases": {
      "ro": "Ялинги",
      "da": "Ялинге",
      "vi": "в Ялингу",
      "tv": "Ялингой",
      "pr": "Ялинге"
    },
    "time_zone": "Africa/Bangui",
    "name_translations": {
      "en": "Yalinga"
    },
    "country_code": "CF"
  },
  {
    "code": "AIH",
    "name": null,
    "coordinates": {
      "lon": 141.26639,
      "lat": -7.348611
    },
    "cases": null,
    "time_zone": "Pacific/Port_Moresby",
    "name_translations": {
      "en": "Aiambak"
    },
    "country_code": "PG"
  },
  {
    "code": "AII",
    "name": "Али Сабье",
    "coordinates": {
      "lon": 42.716667,
      "lat": 11.15
    },
    "cases": {},
    "time_zone": "Africa/Djibouti",
    "name_translations": {
      "en": "Alisabieh"
    },
    "country_code": "DJ"
  },
  {
    "code": "AIK",
    "name": "Айкен",
    "coordinates": {
      "lon": -81.71667,
      "lat": 33.566666
    },
    "cases": null,
    "time_zone": "America/New_York",
    "name_translations": {
      "en": "Aiken"
    },
    "country_code": "US"
  },
  {
    "code": "AIL",
    "name": "Аилиганди",
    "coordinates": {
      "lon": -78.083336,
      "lat": 9.25
    },
    "cases": {
      "ro": "Айлиганди",
      "da": "Айлиганди",
      "vi": "в Айлиганди",
      "tv": "Айлиганди",
      "pr": "Айлиганди"
    },
    "time_zone": "America/Panama",
    "name_translations": {
      "en": "Ailigandi"
    },
    "country_code": "PA"
  },
  {
    "code": "AIM",
    "name": "Аилук",
    "coordinates": {
      "lon": 169.98334,
      "lat": 10.2
    },
    "cases": null,
    "time_zone": "Pacific/Majuro",
    "name_translations": {
      "en": "Ailuk Island"
    },
    "country_code": "MH"
  },
  {
    "code": "AIN",
    "name": "Уэйнрайт",
    "coordinates": {
      "lon": -160.03334,
      "lat": 70.63333
    },
    "cases": null,
    "time_zone": "America/Anchorage",
    "name_translations": {
      "en": "Wainwright"
    },
    "country_code": "US"
  },
  {
    "code": "AIO",
    "name": "Атлантик",
    "coordinates": {
      "lon": -95.01667,
      "lat": 41.4
    },
    "cases": null,
    "time_zone": "America/Chicago",
    "name_translations": {
      "en": "Atlantic"
    },
    "country_code": "US"
  },
  {
    "code": "AIP",
    "name": "Аилинглапалап",
    "coordinates": {
      "lon": 168.81667,
      "lat": 7.266667
    },
    "cases": null,
    "time_zone": "Pacific/Majuro",
    "name_translations": {
      "en": "Ailinglapalap Island"
    },
    "country_code": "MH"
  },
  {
    "code": "AIR",
    "name": "Арипуанан",
    "coordinates": {
      "lon": -59.38333,
      "lat": -10.25
    },
    "cases": null,
    "time_zone": "America/Cuiaba",
    "name_translations": {
      "en": "Aripuana"
    },
    "country_code": "BR"
  },
  {
    "code": "AIS",
    "name": "Арораэ",
    "coordinates": {
      "lon": 176.83333,
      "lat": -2.65
    },
    "cases": null,
    "time_zone": "Pacific/Tarawa",
    "name_translations": {
      "en": "Arorae Island"
    },
    "country_code": "KI"
  },
  {
    "code": "AIT",
    "name": "Аитутаки",
    "coordinates": {
      "lon": -159.767,
      "lat": -18.829443
    },
    "cases": {
      "ro": "Аитутаки",
      "da": "Аитутаки",
      "vi": "в Аитутаки",
      "tv": "Аитутаки",
      "pr": "Аитутаки"
    },
    "time_zone": "Pacific/Rarotonga",
    "name_translations": {
      "en": "Aitutaki"
    },
    "country_code": "CK"
  },
  {
    "code": "AIU",
    "name": "Атиу",
    "coordinates": {
      "lon": -158.1,
      "lat": -20.033333
    },
    "cases": null,
    "time_zone": "Pacific/Rarotonga",
    "name_translations": {
      "en": "Atiu Island"
    },
    "country_code": "CK"
  },
  {
    "code": "AIV",
    "name": "Алисевилл",
    "coordinates": {
      "lon": -88.15,
      "lat": 33.13333
    },
    "cases": null,
    "time_zone": "America/Chicago",
    "name_translations": {
      "en": "Aliceville"
    },
    "country_code": "US"
  },
  {
    "code": "AIW",
    "name": "Аи-Айс",
    "coordinates": {
      "lon": 17.583332,
      "lat": -27.983334
    },
    "cases": null,
    "time_zone": "Africa/Windhoek",
    "name_translations": {
      "en": "Ai-ais"
    },
    "country_code": "NA"
  },
  {
    "code": "AIZ",
    "name": "Кайзер",
    "coordinates": {
      "lon": -92.54722,
      "lat": 38.09833
    },
    "cases": null,
    "time_zone": "America/Chicago",
    "name_translations": {
      "en": "Kaiser"
    },
    "country_code": "US"
  },
  {
    "code": "AJA",
    "name": "Аяччо",
    "coordinates": {
      "lon": 8.794013,
      "lat": 41.91987
    },
    "cases": {
      "ro": "Аяччо",
      "da": "Аяччо",
      "vi": "в Аяччо",
      "tv": "Аяччо",
      "pr": "Аяччо"
    },
    "time_zone": "Europe/Paris",
    "name_translations": {
      "en": "Ajaccio"
    },
    "country_code": "FR"
  },
  {
    "code": "AJF",
    "name": "Эль-Джауф",
    "coordinates": {
      "lon": 40.101486,
      "lat": 29.788668
    },
    "cases": {
      "ro": "Эль-Джауфа",
      "da": "Эль-Джауфу",
      "vi": "в Эль-Джауф",
      "tv": "Эль-Джауфом",
      "pr": "Эль-Джауфе"
    },
    "time_zone": "Asia/Riyadh",
    "name_translations": {
      "en": "Jouf"
    },
    "country_code": "SA"
  },
  {
    "code": "AJI",
    "name": "Агры",
    "coordinates": {
      "lon": 43.025,
      "lat": 39.65
    },
    "cases": {
      "ro": "Агры",
      "da": "Агры",
      "vi": "в Агры",
      "tv": "Агры",
      "pr": "Агры"
    },
    "time_zone": "Europe/Istanbul",
    "name_translations": {
      "en": "Agri"
    },
    "country_code": "TR"
  },
  {
    "code": "AJJ",
    "name": "Акжужт",
    "coordinates": {
      "lon": -14.374444,
      "lat": 19.730556
    },
    "cases": {
      "ro": "Акжужт",
      "da": "Акжужт",
      "vi": "в Акжужт",
      "tv": "Акжужт",
      "pr": "Акжужт"
    },
    "time_zone": "Africa/Nouakchott",
    "name_translations": {
      "en": "Akjoujt"
    },
    "country_code": "MR"
  },
  {
    "code": "AJK",
    "name": "Арак",
    "coordinates": {
      "lon": 49.833332,
      "lat": 34.13333
    },
    "cases": null,
    "time_zone": "Asia/Tehran",
    "name_translations": {
      "en": "Araak"
    },
    "country_code": "IR"
  },
  {
    "code": "AJL",
    "name": "Аиджал",
    "coordinates": {
      "lon": 92.62482,
      "lat": 23.838985
    },
    "cases": {
      "ro": "Аиджала",
      "da": "Аиджалу",
      "vi": "в Аиджал",
      "tv": "Аиджалом",
      "pr": "Аиджале"
    },
    "time_zone": "Asia/Kolkata",
    "name_translations": {
      "en": "Aizawl"
    },
    "country_code": "IN"
  },
  {
    "code": "AJN",
    "name": "Анжуан",
    "coordinates": {
      "lon": 44.42972,
      "lat": -12.126389
    },
    "cases": {
      "ro": "Анжуана",
      "da": "Анжуану",
      "vi": "в Анжуан",
      "tv": "Анжуаном",
      "pr": "Анжуане"
    },
    "time_zone": "Indian/Comoro",
    "name_translations": {
      "en": "Anjouan"
    },
    "country_code": "KM"
  },
  {
    "code": "AJR",
    "name": "Арвидсъяур",
    "coordinates": {
      "lon": 19.285557,
      "lat": 65.59139
    },
    "cases": {
      "ro": "Арвидсъяура",
      "da": "Арвидсъяуру",
      "vi": "в Арвидсъяур",
      "tv": "Арвидсъяуром",
      "pr": "Арвидсъяуре"
    },
    "time_zone": "Europe/Stockholm",
    "name_translations": {
      "en": "Arvidsjaur"
    },
    "country_code": "SE"
  },
  {
    "code": "AJS",
    "name": "Арбеохос",
    "coordinates": {
      "lon": -113.666664,
      "lat": 26.833332
    },
    "cases": {},
    "time_zone": "America/Mazatlan",
    "name_translations": {
      "en": "Abreojos"
    },
    "country_code": "MX"
  },
  {
    "code": "AJU",
    "name": "Аракажу",
    "coordinates": {
      "lon": -37.072792,
      "lat": -10.987206
    },
    "cases": {
      "ro": "Аракажу",
      "da": "Аракажу",
      "vi": "в Аракажу",
      "tv": "Аракажу",
      "pr": "Аракажу"
    },
    "time_zone": "America/Maceio",
    "name_translations": {
      "en": "Aracaju"
    },
    "country_code": "BR"
  },
  {
    "code": "AJY",
    "name": "Агадес",
    "coordinates": {
      "lon": 7.993056,
      "lat": 16.964167
    },
    "cases": {},
    "time_zone": "Africa/Niamey",
    "name_translations": {
      "en": "Agades"
    },
    "country_code": "NE"
  },
  {
    "code": "AKA",
    "name": "Анкан",
    "coordinates": {
      "lon": 108.936,
      "lat": 32.7091
    },
    "cases": {
      "ro": "Анькана",
      "da": "Анькану",
      "vi": "в Анькан",
      "tv": "Аньканом",
      "pr": "Анькане"
    },
    "time_zone": "Asia/Shanghai",
    "name_translations": {
      "en": "Ankang"
    },
    "country_code": "CN"
  },
  {
    "code": "AKB",
    "name": "Атка",
    "coordinates": {
      "lon": -174.20084,
      "lat": 52.21722
    },
    "cases": null,
    "time_zone": "America/Adak",
    "name_translations": {
      "en": "Atka"
    },
    "country_code": "US"
  },
  {
    "code": "AKD",
    "name": "Акола",
    "coordinates": {
      "lon": 77.083336,
      "lat": 20.666668
    },
    "cases": null,
    "time_zone": "Asia/Kolkata",
    "name_translations": {
      "en": "Akola"
    },
    "country_code": "IN"
  },
  {
    "code": "AKE",
    "name": "Акиени",
    "coordinates": {
      "lon": 13.916667,
      "lat": -1.172222
    },
    "cases": {
      "ro": "Акиеней",
      "da": "Акиеням",
      "vi": "в Акиени",
      "tv": "Акиенями",
      "pr": "Акиенях"
    },
    "time_zone": "Africa/Libreville",
    "name_translations": {
      "en": "Akieni"
    },
    "country_code": "GA"
  },
  {
    "code": "AKF",
    "name": "Куфра",
    "coordinates": {
      "lon": 23.333332,
      "lat": 24.2
    },
    "cases": {
      "ro": "Куфра",
      "da": "Куфра",
      "vi": "в Куфра",
      "tv": "Куфра",
      "pr": "Куфра"
    },
    "time_zone": "Africa/Tripoli",
    "name_translations": {
      "en": "Kufrah"
    },
    "country_code": "LY"
  },
  {
    "code": "AKG",
    "name": "Ангуганак",
    "coordinates": {
      "lon": 142.01666,
      "lat": -3.633333
    },
    "cases": {
      "ro": "Ангуганака",
      "da": "Ангуганаку",
      "vi": "в Ангуганак",
      "tv": "Ангуганаком",
      "pr": "Ангуганаке"
    },
    "time_zone": "Pacific/Port_Moresby",
    "name_translations": {
      "en": "Anguganak"
    },
    "country_code": "PG"
  },
  {
    "code": "AKH",
    "name": "Эль-Харж",
    "coordinates": {
      "lon": 47.580555,
      "lat": 24.063334
    },
    "cases": null,
    "time_zone": "Asia/Riyadh",
    "name_translations": {
      "en": "Al Kharj"
    },
    "country_code": "SA"
  },
  {
    "code": "AKI",
    "name": "Акиак",
    "coordinates": {
      "lon": -161.22333,
      "lat": 60.905556
    },
    "cases": null,
    "time_zone": "America/Anchorage",
    "name_translations": {
      "en": "Akiak"
    },
    "country_code": "US"
  },
  {
    "code": "AKJ",
    "name": "Асахикава",
    "coordinates": {
      "lon": 142.45454,
      "lat": 43.67109
    },
    "cases": {
      "ro": "Асахикавы",
      "da": "Асахикаве",
      "vi": "в Асахикаву",
      "tv": "Асахикавой",
      "pr": "Асахикаве"
    },
    "time_zone": "Asia/Tokyo",
    "name_translations": {
      "en": "Asahikawa"
    },
    "country_code": "JP"
  },
  {
    "code": "AKK",
    "name": "Акхайок",
    "coordinates": {
      "lon": -154.16667,
      "lat": 56.944443
    },
    "cases": {},
    "time_zone": "America/Anchorage",
    "name_translations": {
      "en": "Akhiok"
    },
    "country_code": "US"
  },
  {
    "code": "AKL",
    "name": "Окленд",
    "coordinates": {
      "lon": 174.7633315,
      "lat": -36.8484597
    },
    "cases": {
      "ro": "Окленда",
      "da": "Окленду",
      "vi": "в Окленд",
      "tv": "Оклендом",
      "pr": "Окленде"
    },
    "time_zone": "Pacific/Auckland",
    "name_translations": {
      "en": "Auckland"
    },
    "country_code": "NZ"
  },
  {
    "code": "AKM",
    "name": "Закума",
    "coordinates": {
      "lon": 19.816668,
      "lat": 10.883333
    },
    "cases": {
      "ro": "Закумы",
      "da": "Закуме",
      "vi": "в Закуму",
      "tv": "Закумой",
      "pr": "Закуме"
    },
    "time_zone": "Africa/Ndjamena",
    "name_translations": {
      "en": "Zakouma"
    },
    "country_code": "TD"
  },
  {
    "code": "AKN",
    "name": "Кинг Салмон",
    "coordinates": {
      "lon": -156.66902,
      "lat": 58.68274
    },
    "cases": {
      "ro": "Кинг Салмон",
      "da": "Кингу Салмон",
      "vi": "в Кинг Салмон",
      "tv": "Кинг Салмон",
      "pr": "Кинг Салмон"
    },
    "time_zone": "America/Anchorage",
    "name_translations": {
      "en": "King Salmon"
    },
    "country_code": "US"
  },
  {
    "code": "AKO",
    "name": "Акрон",
    "coordinates": {
      "lon": -103.21667,
      "lat": 40.166668
    },
    "cases": {
      "ro": "Akron",
      "da": "Akron",
      "vi": "в Akron",
      "tv": "Akron",
      "pr": "Akron"
    },
    "time_zone": "America/Denver",
    "name_translations": {
      "en": "Akron"
    },
    "country_code": "US"
  },
  {
    "code": "AKP",
    "name": "Анактавак",
    "coordinates": {
      "lon": -151.74,
      "lat": 68.1375
    },
    "cases": null,
    "time_zone": "America/Anchorage",
    "name_translations": {
      "en": "Anaktuvuk"
    },
    "country_code": "US"
  },
  {
    "code": "AKQ",
    "name": "Ганунг Батин",
    "coordinates": {
      "lon": 105.23333,
      "lat": -4.616667
    },
    "cases": {},
    "time_zone": "Asia/Jakarta",
    "name_translations": {
      "en": "Astraksetra"
    },
    "country_code": "ID"
  },
  {
    "code": "AKR",
    "name": "Акуре",
    "coordinates": {
      "lon": 5.083333,
      "lat": 7.25
    },
    "cases": {
      "ro": "Акере",
      "da": "Акере",
      "vi": "в Акере",
      "tv": "Акере",
      "pr": "Акере"
    },
    "time_zone": "Africa/Lagos",
    "name_translations": {
      "en": "Akure"
    },
    "country_code": "NG"
  },
  {
    "code": "AKT",
    "name": "Акротири",
    "coordinates": {
      "lon": 32.983334,
      "lat": 34.583332
    },
    "cases": {},
    "time_zone": "Asia/Nicosia",
    "name_translations": {
      "en": "Akrotiri"
    },
    "country_code": "CY"
  },
  {
    "code": "AKU",
    "name": "Аксу",
    "coordinates": {
      "lon": 80.29262,
      "lat": 41.259983
    },
    "cases": {
      "ro": "Аксу",
      "da": "Аксу",
      "vi": "в Аксу",
      "tv": "Аксу",
      "pr": "Аксу"
    },
    "time_zone": "Asia/Shanghai",
    "name_translations": {
      "en": "Aksu"
    },
    "country_code": "CN"
  },
  {
    "code": "AKV",
    "name": "Акуливик",
    "coordinates": {
      "lon": -78.583336,
      "lat": 60.733334
    },
    "cases": null,
    "time_zone": "America/Montreal",
    "name_translations": {
      "en": "Akulivik"
    },
    "country_code": "CA"
  },
  {
    "code": "AKW",
    "name": "Агаджари",
    "coordinates": {
      "lon": 49.683334,
      "lat": 30.75
    },
    "cases": null,
    "time_zone": "Asia/Tehran",
    "name_translations": {
      "en": "Aghajari"
    },
    "country_code": "IR"
  },
  {
    "code": "AKX",
    "name": "Актюбинск (Актобе)",
    "coordinates": {
      "lon": 57.211403,
      "lat": 50.249336
    },
    "cases": {
      "ro": "Актюбинска",
      "da": "Актюбинску",
      "vi": "в Актюбинск",
      "tv": "Актюбинском",
      "pr": "Актюбинске"
    },
    "time_zone": "Asia/Aqtobe",
    "name_translations": {
      "en": "Aktyubinsk"
    },
    "country_code": "KZ"
  },
  {
    "code": "AKY",
    "name": "Ситуэ",
    "coordinates": {
      "lon": 92.88028,
      "lat": 20.130278
    },
    "cases": {
      "ro": "Ситуэ",
      "da": "Ситуэ",
      "vi": "в Ситуэ",
      "tv": "Ситуэ",
      "pr": "Ситуэ"
    },
    "time_zone": "Asia/Rangoon",
    "name_translations": {
      "en": "Sittwe"
    },
    "country_code": "MM"
  },
  {
    "code": "ALA",
    "name": "Алматы",
    "coordinates": {
      "lon": 76.912628,
      "lat": 43.255058
    },
    "cases": {
      "ro": "Алматы",
      "da": "Алматы",
      "vi": "в Алматы",
      "tv": "Алматы",
      "pr": "Алматы"
    },
    "time_zone": "Asia/Almaty",
    "name_translations": {
      "en": "Almaty"
    },
    "country_code": "KZ"
  },
  {
    "code": "ALB",
    "name": "Олбани",
    "coordinates": {
      "lon": -73.7562317,
      "lat": 42.6525793
    },
    "cases": {
      "ro": "Олбани",
      "da": "Олбани",
      "vi": "в Олбани",
      "tv": "Олбани",
      "pr": "Олбани"
    },
    "time_zone": "America/New_York",
    "name_translations": {
      "en": "Albany"
    },
    "country_code": "US"
  },
  {
    "code": "ALC",
    "name": "Аликанте",
    "coordinates": {
      "lon": -0.4809945,
      "lat": 38.34521
    },
    "cases": {
      "ro": "Аликанте",
      "da": "Аликанте",
      "vi": "в Аликанте",
      "tv": "Аликанте",
      "pr": "Аликанте"
    },
    "time_zone": "Europe/Madrid",
    "name_translations": {
      "en": "Alicante"
    },
    "country_code": "ES"
  },
  {
    "code": "ALD",
    "name": "Алерта",
    "coordinates": {
      "lon": -69.333336,
      "lat": -11.683333
    },
    "cases": {
      "ro": "Алерты",
      "da": "Алерте",
      "vi": "в Алерту",
      "tv": "Алертой",
      "pr": "Алерте"
    },
    "time_zone": "America/Lima",
    "name_translations": {
      "en": "Alerta"
    },
    "country_code": "PE"
  },
  {
    "code": "ALE",
    "name": "Алпайн",
    "coordinates": {
      "lon": -103.75,
      "lat": 30.416668
    },
    "cases": null,
    "time_zone": "America/Chicago",
    "name_translations": {
      "en": "Alpine"
    },
    "country_code": "US"
  },
  {
    "code": "ALF",
    "name": "Алта",
    "coordinates": {
      "lon": 23.355808,
      "lat": 69.977165
    },
    "cases": {
      "ro": "Алты",
      "da": "Алте",
      "vi": "в Алту",
      "tv": "Алтой",
      "pr": "Алте"
    },
    "time_zone": "Europe/Oslo",
    "name_translations": {
      "en": "Alta"
    },
    "country_code": "NO"
  },
  {
    "code": "ALG",
    "name": "Алжир",
    "coordinates": {
      "lon": 3.21167,
      "lat": 36.70058
    },
    "cases": {
      "ro": "Алжира",
      "da": "Алжиру",
      "vi": "в Алжир",
      "tv": "Алжиром",
      "pr": "Алжире"
    },
    "time_zone": "Africa/Algiers",
    "name_translations": {
      "en": "Algiers"
    },
    "country_code": "DZ"
  },
  {
    "code": "ALH",
    "name": "Олбани",
    "coordinates": {
      "lon": 117.804,
      "lat": -34.944996
    },
    "cases": {
      "ro": "Олбани",
      "da": "Олбани",
      "vi": "в Олбани",
      "tv": "Олбани",
      "pr": "Олбани"
    },
    "time_zone": "Australia/Perth",
    "name_translations": {
      "en": "Albany"
    },
    "country_code": "AU"
  },
  {
    "code": "ALI",
    "name": "Элис",
    "coordinates": {
      "lon": -98.066666,
      "lat": 27.75
    },
    "cases": null,
    "time_zone": "America/Chicago",
    "name_translations": {
      "en": "Alice"
    },
    "country_code": "US"
  },
  {
    "code": "ALJ",
    "name": "Александер-Бей",
    "coordinates": {
      "lon": 16.536388,
      "lat": -28.567223
    },
    "cases": null,
    "time_zone": "Africa/Johannesburg",
    "name_translations": {
      "en": "Alexander Bay"
    },
    "country_code": "ZA"
  },
  {
    "code": "ALK",
    "name": "Асэлла",
    "coordinates": {
      "lon": 39.11667,
      "lat": 7.966667
    },
    "cases": {
      "ro": "Аселы",
      "da": "Аселе",
      "vi": "в Аселу",
      "tv": "Аселой",
      "pr": "Аселе"
    },
    "time_zone": "Africa/Addis_Ababa",
    "name_translations": {
      "en": "Asela"
    },
    "country_code": "ET"
  },
  {
    "code": "ALL",
    "name": "Альбенга",
    "coordinates": {
      "lon": 8.216667,
      "lat": 44.05
    },
    "cases": {
      "ro": "Албенги",
      "da": "Албенге",
      "vi": "в Албенгу",
      "tv": "Албенгой",
      "pr": "Албенге"
    },
    "time_zone": "Europe/Rome",
    "name_translations": {
      "en": "Albenga"
    },
    "country_code": "IT"
  },
  {
    "code": "ALM",
    "name": "Аламогордо",
    "coordinates": {
      "lon": -105.960265,
      "lat": 32.8995325
    },
    "cases": {
      "ro": "Аламогордо",
      "da": "Аламогордо",
      "vi": "в Аламогордо",
      "tv": "Аламогордо",
      "pr": "Аламогордо"
    },
    "time_zone": "America/Denver",
    "name_translations": {
      "en": "Alamogordo"
    },
    "country_code": "US"
  },
  {
    "code": "ALN",
    "name": "Альтон",
    "coordinates": {
      "lon": -90.04833,
      "lat": 38.891666
    },
    "cases": null,
    "time_zone": "America/Chicago",
    "name_translations": {
      "en": "Alton"
    },
    "country_code": "US"
  },
  {
    "code": "ALO",
    "name": "Ватерлоо",
    "coordinates": {
      "lon": -92.39972,
      "lat": 42.55611
    },
    "cases": {
      "ro": "Ватерлоо",
      "da": "Ватерлоо",
      "vi": "в Ватерлоо",
      "tv": "Ватерлоо",
      "pr": "Ватерлоо"
    },
    "time_zone": "America/Chicago",
    "name_translations": {
      "en": "Waterloo"
    },
    "country_code": "US"
  },
  {
    "code": "ALP",
    "name": "Халеб",
    "coordinates": {
      "lon": 37.227074,
      "lat": 36.185352
    },
    "cases": {
      "ro": "Алеппо",
      "da": "Алеппо",
      "vi": "в Алеппо",
      "tv": "Алеппо",
      "pr": "Алеппо"
    },
    "time_zone": "Asia/Damascus",
    "name_translations": {
      "en": "Aleppo"
    },
    "country_code": "SY"
  },
  {
    "code": "ALQ",
    "name": "Алегрети",
    "coordinates": {
      "lon": -55.763332,
      "lat": -29.799723
    },
    "cases": null,
    "time_zone": "America/Sao_Paulo",
    "name_translations": {
      "en": "Alegrete"
    },
    "country_code": "BR"
  },
  {
    "code": "ALR",
    "name": "Александра",
    "coordinates": {
      "lon": 169.36945,
      "lat": -45.21389
    },
    "cases": {
      "ro": "Александры",
      "da": "Александре",
      "vi": "в Александру",
      "tv": "Александрой",
      "pr": "Александре"
    },
    "time_zone": "Pacific/Auckland",
    "name_translations": {
      "en": "Alexandra"
    },
    "country_code": "NZ"
  },
  {
    "code": "ALS",
    "name": "Аламоса",
    "coordinates": {
      "lon": -105.86667,
      "lat": 37.43667
    },
    "cases": {
      "ro": "Аламосы",
      "da": "Аламосе",
      "vi": "в Аламосу",
      "tv": "Аламосой",
      "pr": "Аламосе"
    },
    "time_zone": "America/Denver",
    "name_translations": {
      "en": "Alamosa"
    },
    "country_code": "US"
  },
  {
    "code": "ALT",
    "name": "Аленкер",
    "coordinates": {
      "lon": -54.766666,
      "lat": -1.933333
    },
    "cases": null,
    "time_zone": "America/Santarem",
    "name_translations": {
      "en": "Alenquer"
    },
    "country_code": "BR"
  },
  {
    "code": "ALU",
    "name": "Алула",
    "coordinates": {
      "lon": 50.8,
      "lat": 11.966667
    },
    "cases": {},
    "time_zone": "Africa/Mogadishu",
    "name_translations": {
      "en": "Alula"
    },
    "country_code": "SO"
  },
  {
    "code": "ALW",
    "name": "Уолла Уолла",
    "coordinates": {
      "lon": -118.291115,
      "lat": 46.094723
    },
    "cases": {
      "ro": "Уолла Уолла",
      "da": "Уолла Уолла",
      "vi": "в Уолла Уолла",
      "tv": "Уолла Уолла",
      "pr": "Уолла Уолла"
    },
    "time_zone": "America/Los_Angeles",
    "name_translations": {
      "en": "Walla Walla"
    },
    "country_code": "US"
  },
  {
    "code": "ALX",
    "name": "Александер Сити",
    "coordinates": {
      "lon": -85.95,
      "lat": 32.933334
    },
    "cases": null,
    "time_zone": "America/Chicago",
    "name_translations": {
      "en": "Alexander City"
    },
    "country_code": "US"
  },
  {
    "code": "ALY",
    "name": "Александрия",
    "coordinates": {
      "lon": 29.9443,
      "lat": 31.2135
    },
    "cases": {
      "ro": "Александрии",
      "da": "Александрии",
      "vi": "в Александрию",
      "tv": "Александрией",
      "pr": "Александрии"
    },
    "time_zone": "Africa/Cairo",
    "name_translations": {
      "en": "Alexandria"
    },
    "country_code": "EG"
  },
  {
    "code": "ALZ",
    "name": "Алитак",
    "coordinates": {
      "lon": -154.24583,
      "lat": 56.895832
    },
    "cases": null,
    "time_zone": "America/Anchorage",
    "name_translations": {
      "en": "Alitak"
    },
    "country_code": "US"
  },
  {
    "code": "AMA",
    "name": "Амарилло",
    "coordinates": {
      "lon": -101.8312969,
      "lat": 35.2219971
    },
    "cases": {
      "ro": "Амарилло",
      "da": "Амарилло",
      "vi": "в Амарилло",
      "tv": "Амарилло",
      "pr": "Амарилло"
    },
    "time_zone": "America/Chicago",
    "name_translations": {
      "en": "Amarillo"
    },
    "country_code": "US"
  },
  {
    "code": "AMB",
    "name": "Амбилоб",
    "coordinates": {
      "lon": 48.983334,
      "lat": -13.183333
    },
    "cases": {
      "ro": "Амбилобе",
      "da": "Амбилобе",
      "vi": "в Амбилобе",
      "tv": "Амбилобе",
      "pr": "Амбилобе"
    },
    "time_zone": "Indian/Antananarivo",
    "name_translations": {
      "en": "Ambilobe"
    },
    "country_code": "MG"
  },
  {
    "code": "AMC",
    "name": "Ам-Тиман",
    "coordinates": {
      "lon": 20.283333,
      "lat": 11.033333
    },
    "cases": null,
    "time_zone": "Africa/Ndjamena",
    "name_translations": {
      "en": "Am Timan"
    },
    "country_code": "TD"
  },
  {
    "code": "AMD",
    "name": "Ахмадабад",
    "coordinates": {
      "lon": 72.62417,
      "lat": 23.06639
    },
    "cases": {
      "ro": "Ахмадабада",
      "da": "Ахмадабаду",
      "vi": "в Ахмадабад",
      "tv": "Ахмадабадом",
      "pr": "Ахмадабаде"
    },
    "time_zone": "Asia/Kolkata",
    "name_translations": {
      "en": "Ahmedabad"
    },
    "country_code": "IN"
  },
  {
    "code": "AME",
    "name": "Альто-Молокуэ",
    "coordinates": {
      "lon": 37.583332,
      "lat": -15.833333
    },
    "cases": {
      "ro": "Альто-Молокуэ",
      "da": "Альто-Молокуэ",
      "vi": "в Альто-Молокуэ",
      "tv": "Альто-Молокуэ",
      "pr": "Альто-Молокуэ"
    },
    "time_zone": "Africa/Maputo",
    "name_translations": {
      "en": "Alto Molocue"
    },
    "country_code": "MZ"
  },
  {
    "code": "AMF",
    "name": "Ама",
    "coordinates": {
      "lon": 141.66667,
      "lat": -4.166667
    },
    "cases": {
      "ro": "Ама",
      "da": "Ама",
      "vi": "в Ама",
      "tv": "Ама",
      "pr": "Ама"
    },
    "time_zone": "Pacific/Port_Moresby",
    "name_translations": {
      "en": "Ama"
    },
    "country_code": "PG"
  },
  {
    "code": "AMG",
    "name": "Каравари",
    "coordinates": {
      "lon": 143.7,
      "lat": -4.616667
    },
    "cases": null,
    "time_zone": "Pacific/Port_Moresby",
    "name_translations": {
      "en": "Amboin"
    },
    "country_code": "PG"
  },
  {
    "code": "AMH",
    "name": "Арба-Мынч",
    "coordinates": {
      "lon": 37.576942,
      "lat": 6.036111
    },
    "cases": {
      "ro": "Арба-Мынч",
      "da": "Арба-Мынч",
      "vi": "в Арба-Мынч",
      "tv": "Арба-Мынч",
      "pr": "Арба-Мынч"
    },
    "time_zone": "Africa/Addis_Ababa",
    "name_translations": {
      "en": "Arba Mintch"
    },
    "country_code": "ET"
  },
  {
    "code": "AMI",
    "name": "Матарам",
    "coordinates": {
      "lon": 116.10237,
      "lat": -8.563165
    },
    "cases": {
      "ro": "Ломбка",
      "da": "Ломбку",
      "vi": "в Ломбок",
      "tv": "Ломбком",
      "pr": "Ломбке"
    },
    "time_zone": "Asia/Makassar",
    "name_translations": {
      "en": "Mataram"
    },
    "country_code": "ID"
  },
  {
    "code": "AMJ",
    "name": "Альменара",
    "coordinates": {
      "lon": -40.683334,
      "lat": -16.183332
    },
    "cases": null,
    "time_zone": "America/Sao_Paulo",
    "name_translations": {
      "en": "Almenara"
    },
    "country_code": "BR"
  },
  {
    "code": "AML",
    "name": "Пуэрто-Армуэллас",
    "coordinates": {
      "lon": -82.86667,
      "lat": 8.266667
    },
    "cases": null,
    "time_zone": "America/Panama",
    "name_translations": {
      "en": "Puerto Armuellas"
    },
    "country_code": "PA"
  },
  {
    "code": "AMM",
    "name": "Амман",
    "coordinates": {
      "lon": 35.98932,
      "lat": 31.722534
    },
    "cases": {
      "ro": "Аммана",
      "da": "Амману",
      "vi": "в Амман",
      "tv": "Амманом",
      "pr": "Аммане"
    },
    "time_zone": "Asia/Amman",
    "name_translations": {
      "en": "Amman"
    },
    "country_code": "JO"
  },
  {
    "code": "AMN",
    "name": "Алма",
    "coordinates": {
      "lon": -84.65,
      "lat": 43.38333
    },
    "cases": {},
    "time_zone": "America/Detroit",
    "name_translations": {
      "en": "Alma"
    },
    "country_code": "US"
  },
  {
    "code": "AMO",
    "name": "Мао",
    "coordinates": {
      "lon": 15.316667,
      "lat": 14.116667
    },
    "cases": {},
    "time_zone": "Africa/Ndjamena",
    "name_translations": {
      "en": "Mao"
    },
    "country_code": "TD"
  },
  {
    "code": "AMP",
    "name": "Ампанихи",
    "coordinates": {
      "lon": 44.733334,
      "lat": -24.7
    },
    "cases": {
      "ro": "Ампанихи",
      "da": "Ампанихи",
      "vi": "в Ампанихи",
      "tv": "Ампанихи",
      "pr": "Ампанихи"
    },
    "time_zone": "Indian/Antananarivo",
    "name_translations": {
      "en": "Ampanihy"
    },
    "country_code": "MG"
  },
  {
    "code": "AMQ",
    "name": "Амбон",
    "coordinates": {
      "lon": 128.08888,
      "lat": -3.704996
    },
    "cases": {
      "ro": "Амбона",
      "da": "Амбону",
      "vi": "в Амбон",
      "tv": "Амбоном",
      "pr": "Амбоне"
    },
    "time_zone": "Asia/Jayapura",
    "name_translations": {
      "en": "Ambon"
    },
    "country_code": "ID"
  },
  {
    "code": "AMR",
    "name": "Альмерия",
    "coordinates": {
      "lon": 36.834446,
      "lat": 2.456111
    },
    "cases": {
      "ro": "Альмерии",
      "da": "Альмерии",
      "vi": "в Альмерию",
      "tv": "Альмерией",
      "pr": "Альмерии"
    },
    "time_zone": "Europe/Madrid",
    "name_translations": {
      "en": "Almeria"
    },
    "country_code": "ES"
  },
  {
    "code": "AMS",
    "name": "Амстердам",
    "coordinates": {
      "lon": 4.8922222,
      "lat": 52.3730556
    },
    "cases": {
      "ro": "Амстердама",
      "da": "Амстердаму",
      "vi": "в Амстердам",
      "tv": "Амстердамом",
      "pr": "Амстердаме"
    },
    "time_zone": "Europe/Amsterdam",
    "name_translations": {
      "en": "Amsterdam"
    },
    "country_code": "NL"
  },
  {
    "code": "AMT",
    "name": "Амата",
    "coordinates": {
      "lon": 132.03334,
      "lat": -26.766666
    },
    "cases": {},
    "time_zone": "Australia/Adelaide",
    "name_translations": {
      "en": "Amata"
    },
    "country_code": "AU"
  },
  {
    "code": "AMU",
    "name": "Аманаб",
    "coordinates": {
      "lon": 141.15,
      "lat": -3.516667
    },
    "cases": {
      "ro": "Аманаба",
      "da": "Аманабу",
      "vi": "в Аманаб",
      "tv": "Аманабом",
      "pr": "Аманабе"
    },
    "time_zone": "Pacific/Port_Moresby",
    "name_translations": {
      "en": "Amanab"
    },
    "country_code": "PG"
  },
  {
    "code": "AMV",
    "name": "Амдерма",
    "coordinates": {
      "lon": 61.55,
      "lat": 69.76667
    },
    "cases": {
      "ro": "Амдермы",
      "da": "Амдерме",
      "vi": "в Амдерму",
      "tv": "Амдермой",
      "pr": "Амдерме"
    },
    "time_zone": "Europe/Moscow",
    "name_translations": {
      "en": "Amderma"
    },
    "country_code": "RU"
  },
  {
    "code": "AMW",
    "name": "Эймса",
    "coordinates": {
      "lon": -93.61833,
      "lat": 41.994167
    },
    "cases": {},
    "time_zone": "America/Chicago",
    "name_translations": {
      "en": "Ames"
    },
    "country_code": "US"
  },
  {
    "code": "AMX",
    "name": "Амароо",
    "coordinates": {
      "lon": 135.24,
      "lat": -21.74
    },
    "cases": {},
    "time_zone": "Australia/Darwin",
    "name_translations": {
      "en": "Ammaroo"
    },
    "country_code": "AU"
  },
  {
    "code": "AMY",
    "name": "Амбатомаинти",
    "coordinates": {
      "lon": 45.666668,
      "lat": -17.683332
    },
    "cases": {
      "ro": "Амбатомаинти",
      "da": "Амбатомаинти",
      "vi": "в Амбатомаинти",
      "tv": "Амбатомаинти",
      "pr": "Амбатомаинти"
    },
    "time_zone": "Indian/Antananarivo",
    "name_translations": {
      "en": "Ambatomainty"
    },
    "country_code": "MG"
  },
  {
    "code": "AMZ",
    "name": "Ардмор",
    "coordinates": {
      "lon": 174.96666,
      "lat": -37.033333
    },
    "cases": {
      "ro": "Ардмора",
      "da": "Ардмору",
      "vi": "в Ардмор",
      "tv": "Ардмором",
      "pr": "Ардморе"
    },
    "time_zone": "Pacific/Auckland",
    "name_translations": {
      "en": "Ardmore"
    },
    "country_code": "NZ"
  },
  {
    "code": "ANA",
    "name": "Анахайм",
    "coordinates": {
      "lon": -117.933334,
      "lat": 33.816666
    },
    "cases": {},
    "time_zone": "America/Los_Angeles",
    "name_translations": {
      "en": "Anaheim"
    },
    "country_code": "US"
  },
  {
    "code": "ANB",
    "name": "Аннистон",
    "coordinates": {
      "lon": -85.8316318,
      "lat": 33.6598257
    },
    "cases": null,
    "time_zone": "America/Chicago",
    "name_translations": {
      "en": "Anniston"
    },
    "country_code": "US"
  },
  {
    "code": "ANC",
    "name": "Анкоридж",
    "coordinates": {
      "lon": -149.9002778,
      "lat": 61.2180556
    },
    "cases": {
      "ro": "Анкориджа",
      "da": "Анкориджу",
      "vi": "в Анкоридж",
      "tv": "Анкориджем",
      "pr": "Анкоридже"
    },
    "time_zone": "America/Anchorage",
    "name_translations": {
      "en": "Anchorage"
    },
    "country_code": "US"
  },
  {
    "code": "AND",
    "name": "Андерсон",
    "coordinates": {
      "lon": -82.71,
      "lat": 34.49361
    },
    "cases": null,
    "time_zone": "America/New_York",
    "name_translations": {
      "en": "Anderson"
    },
    "country_code": "US"
  },
  {
    "code": "ANE",
    "name": "Анже",
    "coordinates": {
      "lon": -0.563166,
      "lat": 47.478419
    },
    "cases": {
      "ro": "Анже",
      "da": "Анже",
      "vi": "в Анже",
      "tv": "Анже",
      "pr": "Анже"
    },
    "time_zone": "Europe/Paris",
    "name_translations": {
      "en": "Angers"
    },
    "country_code": "FR"
  },
  {
    "code": "ANF",
    "name": "Антофагаста",
    "coordinates": {
      "lon": -70.44079,
      "lat": -23.449
    },
    "cases": {
      "ro": "Антофагасты",
      "da": "Антофагасте",
      "vi": "в Антофагасту",
      "tv": "Антофагастой",
      "pr": "Антофагасте"
    },
    "time_zone": "America/Santiago",
    "name_translations": {
      "en": "Antofagasta"
    },
    "country_code": "CL"
  },
  {
    "code": "ANG",
    "name": "Ангулем",
    "coordinates": {
      "lon": 0.216667,
      "lat": 45.733334
    },
    "cases": {
      "ro": "Ангулема",
      "da": "Ангулему",
      "vi": "в Ангулем",
      "tv": "Ангулемом",
      "pr": "Ангулеме"
    },
    "time_zone": "Europe/Paris",
    "name_translations": {
      "en": "Angouleme"
    },
    "country_code": "FR"
  },
  {
    "code": "ANH",
    "name": "Ануха-Айленд-Резорт",
    "coordinates": {
      "lon": 160.5,
      "lat": -8.983333
    },
    "cases": null,
    "time_zone": "Pacific/Guadalcanal",
    "name_translations": {
      "en": "Anuha Island Resort"
    },
    "country_code": "SB"
  },
  {
    "code": "ANI",
    "name": "Аниак",
    "coordinates": {
      "lon": -159.53697,
      "lat": 61.574398
    },
    "cases": {
      "ro": "Аниака",
      "da": "Аниаку",
      "vi": "в Аниак",
      "tv": "Аниаком",
      "pr": "Аниаке"
    },
    "time_zone": "America/Anchorage",
    "name_translations": {
      "en": "Aniak"
    },
    "country_code": "US"
  },
  {
    "code": "ANJ",
    "name": "Занага",
    "coordinates": {
      "lon": 13.833333,
      "lat": -2.85
    },
    "cases": {
      "ro": "Занага",
      "da": "Занага",
      "vi": "в Занагу",
      "tv": "Занага",
      "pr": "Занага"
    },
    "time_zone": "Africa/Brazzaville",
    "name_translations": {
      "en": "Zanaga"
    },
    "country_code": "CG"
  },
  {
    "code": "ANL",
    "name": "Андуло",
    "coordinates": {
      "lon": 17.25,
      "lat": -11.25
    },
    "cases": {
      "ro": "Андула",
      "da": "Андулу",
      "vi": "в Андуло",
      "tv": "Андулом",
      "pr": "Андуле"
    },
    "time_zone": "Africa/Luanda",
    "name_translations": {
      "en": "Andulo"
    },
    "country_code": "AO"
  },
  {
    "code": "ANM",
    "name": "Анталахи",
    "coordinates": {
      "lon": 50.316666,
      "lat": -15.0
    },
    "cases": {
      "ro": "Анталахи",
      "da": "Анталахе",
      "vi": "в Анталаху",
      "tv": "Анталахой",
      "pr": "Анталахе"
    },
    "time_zone": "Indian/Antananarivo",
    "name_translations": {
      "en": "Antalaha"
    },
    "country_code": "MG"
  },
  {
    "code": "ANN",
    "name": "Остров Аннет",
    "coordinates": {
      "lon": -131.57056,
      "lat": 55.036945
    },
    "cases": null,
    "time_zone": "America/Metlakatla",
    "name_translations": {
      "en": "Annette Island"
    },
    "country_code": "US"
  },
  {
    "code": "ANO",
    "name": "Ангоче",
    "coordinates": {
      "lon": 39.936943,
      "lat": -16.177778
    },
    "cases": null,
    "time_zone": "Africa/Maputo",
    "name_translations": {
      "en": "Angoche"
    },
    "country_code": "MZ"
  },
  {
    "code": "ANP",
    "name": "Аннаполис",
    "coordinates": {
      "lon": -76.5,
      "lat": 38.983334
    },
    "cases": {
      "ro": "Аннаполиса",
      "da": "Аннаполису",
      "vi": "в Аннаполис",
      "tv": "Аннаполисом",
      "pr": "Аннаполисе"
    },
    "time_zone": "America/New_York",
    "name_translations": {
      "en": "Annapolis"
    },
    "country_code": "US"
  },
  {
    "code": "ANQ",
    "name": "Ангола",
    "coordinates": {
      "lon": -85.0,
      "lat": 41.63333
    },
    "cases": {
      "ro": "Анголы",
      "da": "Анголе",
      "vi": "в Анголу",
      "tv": "Анголой",
      "pr": "Анголе"
    },
    "time_zone": "America/Indiana/Indianapolis",
    "name_translations": {
      "en": "Angola"
    },
    "country_code": "US"
  },
  {
    "code": "ANR",
    "name": "Антверпен",
    "coordinates": {
      "lon": 4.39625,
      "lat": 51.21992
    },
    "cases": {
      "ro": "Антверпена",
      "da": "Антверпену",
      "vi": "в Антверпен",
      "tv": "Антверпеном",
      "pr": "Антверпене"
    },
    "time_zone": "Europe/Brussels",
    "name_translations": {
      "en": "Antwerp"
    },
    "country_code": "BE"
  },
  {
    "code": "ANS",
    "name": "Андауайлас",
    "coordinates": {
      "lon": -73.355835,
      "lat": -13.716667
    },
    "cases": {
      "ro": "Андауайласа",
      "da": "Андауайласу",
      "vi": "в Андауайлас",
      "tv": "Андауайласом",
      "pr": "Андауайласе"
    },
    "time_zone": "America/Lima",
    "name_translations": {
      "en": "Andahuaylas"
    },
    "country_code": "PE"
  },
  {
    "code": "ANT",
    "name": "Санкт-Антон",
    "coordinates": {
      "lon": 10.283333,
      "lat": 47.15
    },
    "cases": {},
    "time_zone": "Europe/Vienna",
    "name_translations": {
      "en": "St Anton"
    },
    "country_code": "AT"
  },
  {
    "code": "ANU",
    "name": "Антигуа",
    "coordinates": {
      "lon": -61.76389,
      "lat": 17.108334
    },
    "cases": {
      "ro": "Антигуа",
      "da": "Антигуа",
      "vi": "в Антигуа",
      "tv": "Антигуа",
      "pr": "Антигуа"
    },
    "time_zone": "America/Antigua",
    "name_translations": {
      "en": "Antigua"
    },
    "country_code": "AG"
  },
  {
    "code": "ANV",
    "name": "Анвик",
    "coordinates": {
      "lon": -160.18889,
      "lat": 62.647778
    },
    "cases": {
      "ro": "Анвика",
      "da": "Анвику",
      "vi": "в Анвик",
      "tv": "Анвиком",
      "pr": "Анвике"
    },
    "time_zone": "America/Anchorage",
    "name_translations": {
      "en": "Anvik"
    },
    "country_code": "US"
  },
  {
    "code": "ANW",
    "name": "Айнсворт",
    "coordinates": {
      "lon": -99.86667,
      "lat": 42.55
    },
    "cases": null,
    "time_zone": "America/Chicago",
    "name_translations": {
      "en": "Ainsworth"
    },
    "country_code": "US"
  },
  {
    "code": "ANX",
    "name": "Анденес",
    "coordinates": {
      "lon": 16.133326,
      "lat": 69.30492
    },
    "cases": {
      "ro": "Анденеса",
      "da": "Анденесу",
      "vi": "в Анденес",
      "tv": "Анденесом",
      "pr": "Анденесе"
    },
    "time_zone": "Europe/Oslo",
    "name_translations": {
      "en": "Andenes"
    },
    "country_code": "NO"
  },
  {
    "code": "ANY",
    "name": "Энтони",
    "coordinates": {
      "lon": -98.03333,
      "lat": 37.15
    },
    "cases": null,
    "time_zone": "America/Chicago",
    "name_translations": {
      "en": "Anthony"
    },
    "country_code": "US"
  },
  {
    "code": "ANZ",
    "name": "Ангус-Даунс",
    "coordinates": {
      "lon": 132.16667,
      "lat": -25.083332
    },
    "cases": null,
    "time_zone": "Australia/Darwin",
    "name_translations": {
      "en": "Angus Downs"
    },
    "country_code": "AU"
  },
  {
    "code": "AOA",
    "name": "Ароа",
    "coordinates": {
      "lon": 146.8,
      "lat": -9.05
    },
    "cases": {
      "ro": "Ароа",
      "da": "Ароа",
      "vi": "в Ароа",
      "tv": "Ароа",
      "pr": "Ароа"
    },
    "time_zone": "Pacific/Port_Moresby",
    "name_translations": {
      "en": "Aroa"
    },
    "country_code": "PG"
  },
  {
    "code": "AOB",
    "name": "Аннанберг",
    "coordinates": {
      "lon": 144.65,
      "lat": -4.916667
    },
    "cases": {
      "ro": "Аннаберга",
      "da": "Аннабергу",
      "vi": "в Аннаберг",
      "tv": "Аннабергом",
      "pr": "Аннаберге"
    },
    "time_zone": "Pacific/Port_Moresby",
    "name_translations": {
      "en": "Annanberg"
    },
    "country_code": "PG"
  },
  {
    "code": "AOC",
    "name": "Альтенбург",
    "coordinates": {
      "lon": 12.45,
      "lat": 50.983334
    },
    "cases": {
      "ro": "Альтенбурга",
      "da": "Альтенбургу",
      "vi": "в Альтенбург",
      "tv": "Альтенбургом",
      "pr": "Альтенбурге"
    },
    "time_zone": "Europe/Berlin",
    "name_translations": {
      "en": "Altenburg"
    },
    "country_code": "DE"
  },
  {
    "code": "AOD",
    "name": "Абу-Дейя",
    "coordinates": {
      "lon": 19.288889,
      "lat": 11.474722
    },
    "cases": {
      "ro": "Абу-Дейя",
      "da": "Абу-Дейя",
      "vi": "в Абу-Дейя",
      "tv": "Абу-Дейя",
      "pr": "Абу-Дейя"
    },
    "time_zone": "Africa/Ndjamena",
    "name_translations": {
      "en": "Abou Deia"
    },
    "country_code": "TD"
  },
  {
    "code": "AOG",
    "name": "Аньшань",
    "coordinates": {
      "lon": 123.03333,
      "lat": 41.166668
    },
    "cases": {
      "ro": "Аньшаня",
      "da": "Аньшаню",
      "vi": "в Аньшань",
      "tv": "Аньшанем",
      "pr": "Аньшане"
    },
    "time_zone": "Asia/Shanghai",
    "name_translations": {
      "en": "Anshan"
    },
    "country_code": "CN"
  },
  {
    "code": "AOH",
    "name": "Лима",
    "coordinates": {
      "lon": -84.1,
      "lat": 40.766666
    },
    "cases": {},
    "time_zone": "America/New_York",
    "name_translations": {
      "en": "Lima"
    },
    "country_code": "US"
  },
  {
    "code": "AOI",
    "name": "Анкона",
    "coordinates": {
      "lon": 13.355723,
      "lat": 43.60691
    },
    "cases": {
      "ro": "Анконы",
      "da": "Анконе",
      "vi": "в Анкону",
      "tv": "Анконой",
      "pr": "Анконе"
    },
    "time_zone": "Europe/Rome",
    "name_translations": {
      "en": "Ancona"
    },
    "country_code": "IT"
  },
  {
    "code": "AOJ",
    "name": "Аомори",
    "coordinates": {
      "lon": 140.68922,
      "lat": 40.738758
    },
    "cases": {
      "ro": "Аомори",
      "da": "Аомори",
      "vi": "в Аомори",
      "tv": "Аомори",
      "pr": "Аомори"
    },
    "time_zone": "Asia/Tokyo",
    "name_translations": {
      "en": "Aomori"
    },
    "country_code": "JP"
  },
  {
    "code": "AOK",
    "name": "Карпатос",
    "coordinates": {
      "lon": 27.146729,
      "lat": 35.420685
    },
    "cases": {
      "ro": "Карпатоса",
      "da": "Карпатосу",
      "vi": "в Карпатос",
      "tv": "Карпатосом",
      "pr": "Карпатосе"
    },
    "time_zone": "Europe/Athens",
    "name_translations": {
      "en": "Karpathos"
    },
    "country_code": "GR"
  },
  {
    "code": "AOL",
    "name": "Пасо де Лос Либрес",
    "coordinates": {
      "lon": -57.15,
      "lat": -29.683332
    },
    "cases": null,
    "time_zone": "America/Argentina/Cordoba",
    "name_translations": {
      "en": "Paso De Los Libres"
    },
    "country_code": "AR"
  },
  {
    "code": "AON",
    "name": "Арон",
    "coordinates": {
      "lon": 146.0,
      "lat": -6.333333
    },
    "cases": null,
    "time_zone": "Pacific/Port_Moresby",
    "name_translations": {
      "en": "Arona"
    },
    "country_code": "PG"
  },
  {
    "code": "AOO",
    "name": "Алтуна",
    "coordinates": {
      "lon": -78.32,
      "lat": 40.297222
    },
    "cases": {
      "ro": "Алтуны",
      "da": "Алтуне",
      "vi": "в Алтуну",
      "tv": "Алтуной",
      "pr": "Алтуне"
    },
    "time_zone": "America/New_York",
    "name_translations": {
      "en": "Altoona"
    },
    "country_code": "US"
  },
  {
    "code": "AOR",
    "name": "Алор-Сетар",
    "coordinates": {
      "lon": 100.405266,
      "lat": 6.201171
    },
    "cases": {
      "ro": "Алор-Сетара",
      "da": "Алор-Сетару",
      "vi": "в Алор-Сетар",
      "tv": "Алор-Сетаром",
      "pr": "Алор-Сетаре"
    },
    "time_zone": "Asia/Kuala_Lumpur",
    "name_translations": {
      "en": "Alor Setar"
    },
    "country_code": "MY"
  },
  {
    "code": "AOS",
    "name": "Амук",
    "coordinates": {
      "lon": -153.83333,
      "lat": 57.466667
    },
    "cases": {},
    "time_zone": "America/Anchorage",
    "name_translations": {
      "en": "Amook"
    },
    "country_code": "US"
  },
  {
    "code": "AOT",
    "name": "Аоста",
    "coordinates": {
      "lon": 7.3625,
      "lat": 45.73861
    },
    "cases": {
      "ro": "Аосты",
      "da": "Аосте",
      "vi": "в Аосту",
      "tv": "Аостой",
      "pr": "Аосте"
    },
    "time_zone": "Europe/Rome",
    "name_translations": {
      "en": "Aosta"
    },
    "country_code": "IT"
  },
  {
    "code": "AOU",
    "name": "Аттопеу",
    "coordinates": {
      "lon": 106.833336,
      "lat": 14.8
    },
    "cases": {
      "ro": "Аттопью",
      "da": "Аттопью",
      "vi": "в Аттопью",
      "tv": "Аттопью",
      "pr": "Аттопью"
    },
    "time_zone": "Asia/Vientiane",
    "name_translations": {
      "en": "Attopeu"
    },
    "country_code": "LA"
  },
  {
    "code": "APB",
    "name": "Аполо",
    "coordinates": {
      "lon": -68.51667,
      "lat": -14.716667
    },
    "cases": {
      "ro": "Аполо",
      "da": "Аполо",
      "vi": "в Аполо",
      "tv": "Аполо",
      "pr": "Аполо"
    },
    "time_zone": "America/La_Paz",
    "name_translations": {
      "en": "Apolo"
    },
    "country_code": "BO"
  },
  {
    "code": "APC",
    "name": "Напа",
    "coordinates": {
      "lon": -122.28,
      "lat": 38.212223
    },
    "cases": {},